~Version Information Block
VERS .                 2.00:  CWLS LOG ASCII STANDARD - VERSION 2.00
WRAP .                   NO:  One line per depth step
~Well Information Block
#MNEM.UNIT        Data Type   Information
#---------- ----------------  -----------
STRT .F               14023:  START DEPTH
STOP .F               14654:  STOP DEPTH
STEP .F                0.25:  STEP
NULL .              -999.25:  NULL VALUE
COMP .            Whozit Co:  COMPANY
WELL .   Astn Chalk Example:  WELL
FLD  .             GIDDINGS:  FIELD
LOC  .           Fayette CO:  LOCATION
PROV .                   TX:  PROVINCE
SRVC .                  280:  SERVICE COMPANY
DATE .             5-MAY-32:  LOG DATE
API  .       xxxxxxxxxxxxxx:  API NUMBER
~Curve Information Block
#MNEM.UNIT         API CODE   Curve Description
#---------- ----------------  -----------------
DEPTH.F      00 000 000 000:  
MTTV .F      00 000 000 000:  MWD Tool Measurement TVD
ROP  .FT/H   00 000 000 000:  Rate of Penetration (MWD Depth Ave.)
SGR  .GAPI   00 000 000 000:  CWR Calibrated Gamma
VIBC .CPS    00 000 000 000:  Vibration Count
~Parameter Information Block
~Other Information Block
~A        DEPTH           MTTV            ROP            SGR           VIBC 
# ...
     14492.0000     14290.2197        35.4300        48.7000        26.5600 
     14492.2500     14290.2500        31.8300        44.1200        21.7100 
     14492.5000     14290.2803        28.2300        43.6800        21.5700 
     14492.7500     14290.3096        21.5200        44.1300        23.6000 
     14493.0000     14290.3301        14.8100        44.1300        13.5000 
     14493.2500     14290.3604        15.8500        43.4600        12.0500 
     14493.5000     14290.3896        16.9000        40.6400        10.5900 
     14493.7500     14290.4102        23.2900        43.7300        19.2500 
     14494.0000     14290.4404        29.6800        43.0600        31.0600 
     14494.2500     14290.4697        34.4800        42.3900        42.8600 
     14494.5000     14290.4902        39.2800        41.7100        10.7600 
     14494.7500     14290.5195        28.8300        40.6300        10.8100 
     14495.0000     14290.5498        18.4400        40.0000        10.8600 
     14495.2500     14290.5703        21.6000        39.8800        10.9100 
     14495.5000     14290.5996        24.7500        39.7600        10.9600 
     14495.7500     14290.6201        22.5200        39.6400        16.9700 
     14496.0000     14290.6504        20.3000        39.9600        25.2800 
     14496.2500     14290.6797        23.0500        40.9700        21.4200 
     14496.5000     14290.7002        25.8100        41.1700        17.5600 
     14496.7500     14290.7305        23.9200        41.0000        16.8100 
     14497.0000     14290.7598        22.0400        40.1000        53.3700 
     14497.2500     14290.7803        20.7600        43.7400        89.9200 
     14497.5000     14290.8096        19.4700        40.4600        70.9600 
     14497.7500     14290.8301        23.0200        41.5500         7.7100 
     14498.0000     14290.8604        26.5700        43.4300        29.8900 
     14498.2500     14290.8799        27.4000        45.0000        37.9100 
     14498.5000     14290.9102        28.2300        45.3400        39.2500 
     14498.7500     14290.9297        44.1800        46.5400        62.5200 
     14499.0000     14290.9600        60.2300        47.9500        73.4900 
     14499.2500     14290.9902        45.1700        48.7600        66.1400 
     14499.5000     14291.0098        30.1200        49.4500        58.7800 
     14499.7500     14291.0400        30.1200        49.9900        58.7800 
     14500.0000     14291.0596        30.1200        50.8500        59.0700 
     14500.2500     14291.0898        26.5500        52.2000        61.0900 
     14500.5000     14291.1104        22.9900        53.4300        66.2300 
     14500.7500     14291.1396        25.6700        54.6400        59.2400 
     14501.0000     14291.1602        28.3500        55.8500        42.6500 
     14501.2500     14291.1904        31.9400        57.0600        26.0500 
     14501.5000     14291.2100        35.5400        56.5500         9.4600 
     14501.7500     14291.2402        33.7200        55.6100         7.3000 
     14502.0000     14291.2598        31.8900        54.6700        13.2200 
     14502.2500     14291.2900        26.2100        53.7200        19.1400 
     14502.5000     14291.3096        20.5300        53.0000        25.0600 
     14502.7500     14291.3398        16.2200        52.3900        30.9800 
     14503.0000     14291.3604        11.9100        52.0200         4.8100 
     14503.2500     14291.3799        20.3300        51.6600        13.9100 
     14503.5000     14291.4102        28.8100        51.2900        23.0600 
     14503.7500     14291.4297        35.6300        50.9200        32.1600 
     14504.0000     14291.4600        42.4400        50.8500        41.2600 
     14504.2500     14291.4805        37.3300        50.6800        43.9800 
     14504.5000     14291.5098        32.2300        49.8100        26.7100 
     14504.7500     14291.5303        23.0900        48.9500        37.5400 
     14505.0000     14291.5596        13.9500        48.0800        48.3700 
     14505.2500     14291.5801        20.1000        47.2200        59.2000 
     14505.5000     14291.6104        26.2600        46.3600        70.0300 
     14505.7500     14291.6299        19.8900        47.8300        80.8600 
     14506.0000     14291.6504        13.5200        46.1400        91.7000 
     14506.2500     14291.6797        14.3800        46.2800        89.1000 
     14506.5000     14291.7002        15.2300        45.4700        81.2200 
     14506.7500     14291.7197        14.9300        45.4700        73.3500 
     14507.0000     14291.7500        14.6400        45.4700        39.3100 
     14507.2500     14291.7695        16.8200        45.5600        47.4800 
     14507.5000     14291.7998        19.0000        46.0100        55.6500 
     14507.7500     14291.8203        20.1300        46.4600        63.8700 
     14508.0000     14291.8398        21.2600        45.7400        67.9900 
     14508.2500     14291.8701        17.8900        45.6000        68.4500 
     14508.5000     14291.8896        14.5200        47.7800        68.9100 
     14508.7500     14291.9199        13.3600        48.1600        69.3700 
     14509.0000     14291.9404        12.2100        48.5500        69.8300 
     14509.2500     14291.9600        20.5300        49.0000        70.9800 
     14509.5000     14291.9902        28.8600        49.5100        80.4900 
     14509.7500     14292.0098        21.5100        50.0100        90.0000 
     14510.0000     14292.0303        14.1700        48.4400        99.5100 
     14510.2500     14292.0498        17.5900        43.7200        35.8800 
     14510.5000     14292.0801        21.0100        46.5500        39.3000 
     14510.7500     14292.0996        18.8100        50.2200        42.7200 
     14511.0000     14292.1201        16.6000        49.7800        46.1400 
     14511.2500     14292.1504        14.9400        49.3300        49.5600 
     14511.5000     14292.1699        13.2800        49.6000        52.9800 
     14511.7500     14292.1904        24.2200        50.0400        56.3200 
     14512.0000     14292.2100        35.1600        51.0600        59.1200 
     14512.2500     14292.2402        29.0600        52.9500        52.2300 
     14512.5000     14292.2598        22.9900        54.2600        38.9100 
     14512.7500     14292.2803        23.9200        54.2600        25.5900 
     14513.0000     14292.3096        24.8500        52.4600        12.2700 
     14513.2500     14292.3301        24.8800        50.7100         8.7000 
     14513.5000     14292.3496        24.9000        52.8700        19.9000 
     14513.7500     14292.3799        24.9000        51.1800        31.0900 
     14514.0000     14292.4004        24.9000        49.2400        29.5300 
     14514.2500     14292.4199        26.2400        47.0000        23.9900 
     14514.5000     14292.4404        27.5800        47.9900        18.4600 
     14514.7500     14292.4600        25.2800        45.8700        12.9200 
     14515.0000     14292.4902        22.9900        47.4500        53.6900 
     14515.2500     14292.5098        29.4300        46.2700       100.8700 
     14515.5000     14292.5303        35.8600        43.3200       129.0800 
     14515.7500     14292.5498        28.8600        41.4400       108.9600 
     14516.0000     14292.5703        21.8700        42.7900        88.8400 
     14516.2500     14292.5898        18.5300        46.2800        68.7200 
     14516.5000     14292.6201        15.1600        44.9400        48.4700 
     14516.7500     14292.6396        16.4300        44.6600        14.9100 
     14517.0000     14292.6602        17.7000        44.0400        35.8800 
     14517.2500     14292.6797        14.1600        44.4000        62.0200 
     14517.5000     14292.7100        10.6100        44.4000        88.1700 
     14517.7500     14292.7305        13.6800        42.6100       114.3100 
