~Version Information Block
VERS .                 2.00:  CWLS LOG ASCII STANDARD - VERSION 2.00
WRAP .                   NO:  One line per depth step
~Well Information Block
#MNEM.UNIT        Data Type   Information
#---------- ----------------  -----------
STRT .F               14023:  START DEPTH
STOP .F               14654:  STOP DEPTH
STEP .F                0.25:  STEP
NULL .              -999.25:  NULL VALUE
COMP .            Whozit Co:  COMPANY
WELL .   Astn Chalk Example:  WELL
FLD  .             GIDDINGS:  FIELD
LOC  .           Fayette CO:  LOCATION
PROV .                   TX:  PROVINCE
SRVC .                  280:  SERVICE COMPANY
DATE .             5-MAY-32:  LOG DATE
API  .       xxxxxxxxxxxxxx:  API NUMBER
~Curve Information Block
#MNEM.UNIT         API CODE   Curve Description
#---------- ----------------  -----------------
DEPTH.F      00 000 000 000:  
MTTV .F      00 000 000 000:  MWD Tool Measurement TVD
ROP  .FT/H   00 000 000 000:  Rate of Penetration (MWD Depth Ave.)
SGR  .GAPI   00 000 000 000:  CWR Calibrated Gamma
VIBC .CPS    00 000 000 000:  Vibration Count
~Parameter Information Block
~Other Information Block
~A        DEPTH           MTTV            ROP            SGR           VIBC 
# ...
     14570.0000     14295.8604        32.2400        32.4000       188.8600 
     14570.2500     14295.8701        29.4100        32.8400       205.8300 
     14570.5000     14295.8799        26.5700        33.5400       222.8000 
     14570.7500     14295.8896        23.7400        34.6100        63.2900 
     14571.0000     14295.9004        20.9000        35.6600       275.0300 
     14571.2500     14295.9102        18.0600        36.6700       313.1800 
     14571.5000     14295.9102        15.2300        36.8800       297.3600 
     14571.7500     14295.9199        15.9800        36.8800       281.5300 
     14572.0000     14295.9297        16.7400        37.0800       233.1100 
     14572.2500     14295.9404        16.6000        37.5800       135.2700 
     14572.5000     14295.9502        16.4700        38.0800        37.4300 
     14572.7500     14295.9600        15.0600        38.4100        99.8200 
     14573.0000     14295.9697        13.6500        38.0300       193.3800 
     14573.2500     14295.9697        23.2500        37.6400       205.5600 
     14573.5000     14295.9805        32.8600        37.2600       172.5800 
     14573.7500     14295.9902        42.4700        36.8700       140.5600 
     14574.0000     14296.0000        52.0700        36.4900       108.5400 
     14574.2500     14296.0098        36.7600        34.7200        76.5200 
     14574.5000     14296.0195        21.4500        36.3400        44.4900 
     14574.7500     14296.0303        28.7900        36.8300        40.7000 
     14575.0000     14296.0303        36.1200        35.8800        52.6800 
     14575.2500     14296.0400        37.7600        34.9200        63.9200 
     14575.5000     14296.0498        39.3900        34.7300        75.1600 
     14575.7500     14296.0596        36.6000        34.7300        86.3900 
     14576.0000     14296.0703        33.8000        34.7300        97.6300 
     14576.2500     14296.0801        25.6500        33.1100       108.8600 
     14576.5000     14296.0801        17.5000        32.9300       108.1500 
     14576.7500     14296.0898        12.9700        33.3800        82.0900 
     14577.0000     14296.0996         8.4400        33.7200        56.0200 
     14577.2500     14296.1104        16.1900        33.8900        65.6600 
     14577.5000     14296.1201        23.9000        34.0500        78.5600 
     14577.7500     14296.1201        16.9200        34.0700        72.4300 
     14578.0000     14296.1299         9.9300        33.5000        66.2900 
     14578.2500     14296.1396        13.7900        32.9200        60.1600 
     14578.5000     14296.1504        17.6600        32.3600        56.7700 
     14578.7500     14296.1504        19.1900        31.8200        60.3600 
     14579.0000     14296.1602        20.7200        31.8600        63.9600 
     14579.2500     14296.1699        31.5000        32.7500        67.5600 
     14579.5000     14296.1797        42.2800        33.6500        71.1600 
     14579.7500     14296.1904        39.8100        33.6500        74.7600 
     14580.0000     14296.1904        37.3500        33.8300        78.3600 
     14580.2500     14296.2002        28.0800        34.0400        81.9600 
     14580.5000     14296.2100        18.8100        33.3100        85.5600 
     14580.7500     14296.2197        25.1100        32.5800        58.8400 
     14581.0000     14296.2197        31.4100        31.8500        63.9500 
     14581.2500     14296.2305        35.3900        31.1100        69.0500 
     14581.5000     14296.2402        39.3900        30.9000        74.1900 
     14581.7500     14296.2500        43.0000        30.8200        80.7400 
     14582.0000     14296.2500        46.6100        30.7400        92.9000 
     14582.2500     14296.2598        42.2400        30.6600       105.0500 
     14582.5000     14296.2695        37.8700        30.5800       117.2100 
     14582.7500     14296.2803        40.1400        30.5000       133.4000 
     14583.0000     14296.2900        42.4100        30.4200       135.9500 
     14583.2500     14296.2900        27.3500        29.0800       121.9600 
     14583.5000     14296.2998        12.2900        27.7400       107.9700 
     14583.7500     14296.3096        18.4500        28.0100        93.9800 
     14584.0000     14296.3096        24.6100        28.2700        79.9800 
     14584.2500     14296.3203        25.5300        30.0700        59.1100 
     14584.5000     14296.3301        26.4600        28.2800        65.7500 
     14584.7500     14296.3301        19.4700        26.9300        59.9600 
     14585.0000     14296.3398        12.4800        26.5500        54.1800 
     14585.2500     14296.3496        16.8800        27.6300        93.7200 
     14585.5000     14296.3604        21.2800        28.3600       112.0900 
     14585.7500     14296.3604        31.0100        28.5900        98.2300 
     14586.0000     14296.3701        40.8000        28.8100        84.2800 
     14586.2500     14296.3799        35.1100        28.4800        70.4200 
     14586.5000     14296.3799        29.4200        28.2700        56.5700 
     14586.7500     14296.3896        28.4000        28.2700        76.3200 
     14587.0000     14296.4004        27.3800        28.2700        86.1300 
     14587.2500     14296.4004        24.9900        28.2700        87.4800 
     14587.5000     14296.4102        22.5900        28.3600        70.5900 
     14587.7500     14296.4199        20.1900        28.5900        62.1500 
     14588.0000     14296.4199        17.8000        28.8100       114.7400 
     14588.2500     14296.4297        24.5600        25.6700        33.0500 
     14588.5000     14296.4404        31.3100        24.6500        35.4200 
     14588.7500     14296.4404        29.3400        24.9800        37.2100 
     14589.0000     14296.4502        27.3800        26.6600        34.8500 
     14589.2500     14296.4600        27.1000        26.8200        45.8900 
     14589.5000     14296.4600        26.8200        27.5800        13.1100 
     14589.7500     14296.4697        23.2600        28.3500        14.5000 
     14590.0000     14296.4805        19.7100        28.1000       105.1400 
     14590.2500     14296.4805        18.0800        27.5600        99.9300 
     14590.5000     14296.4902        16.4600        31.9200        94.7500 
     14590.7500     14296.5000        28.9300        33.9200       117.0300 
     14591.0000     14296.5000        41.4000        34.3700       139.3000 
     14591.2500     14296.5098        43.9600        34.5200       161.5800 
     14591.5000     14296.5098        46.5200        33.5100       179.8200 
     14591.7500     14296.5195        49.0700        33.5200        97.2500 
     14592.0000     14296.5303        51.6300        34.1900        14.6800 
     14592.2500     14296.5303        51.4500        35.8600        70.1700 
     14592.5000     14296.5400        51.2700        37.2300       110.1000 
     14592.7500     14296.5498        51.0900        38.2600        22.9300 
     14593.0000     14296.5498        50.9100        39.7900        66.1500 
     14593.2500     14296.5596        50.7300        41.3300       109.3700 
     14593.5000     14296.5596        50.5500        42.9200       108.6400 
     14593.7500     14296.5703        34.8500        44.6000        18.9100 
     14594.0000     14296.5801        19.1400        43.8600        24.4600 
     14594.2500     14296.5801        31.8500        42.5200        30.0000 
     14594.5000     14296.5898        44.6500        42.7900        29.5400 
     14594.7500      -999.2500        35.8500        44.9400        52.0500 
     14595.0000      -999.2500        27.0600        45.3000       121.9700 
     14595.2500      -999.2500        21.9200        45.2700       194.7500 
     14595.5000      -999.2500        16.7800        44.9400       129.5500 
     14595.7500      -999.2500        22.2800        43.6000        64.3500 
