~Version Information Block
VERS .                 2.00:  CWLS LOG ASCII STANDARD - VERSION 2.00
WRAP .                   NO:  One line per depth step
~Well Information Block
#MNEM.UNIT        Data Type   Information
#---------- ----------------  -----------
STRT .F               14023:  START DEPTH
STOP .F               14654:  STOP DEPTH
STEP .F                0.25:  STEP
NULL .              -999.25:  NULL VALUE
COMP .            Whozit Co:  COMPANY
WELL .   Astn Chalk Example:  WELL
FLD  .             GIDDINGS:  FIELD
LOC  .           Fayette CO:  LOCATION
PROV .                   TX:  PROVINCE
SRVC .                  280:  SERVICE COMPANY
DATE .             5-MAY-32:  LOG DATE
API  .       xxxxxxxxxxxxxx:  API NUMBER
~Curve Information Block
#MNEM.UNIT         API CODE   Curve Description
#---------- ----------------  -----------------
DEPTH.F      00 000 000 000:  
MTTV .F      00 000 000 000:  MWD Tool Measurement TVD
ROP  .FT/H   00 000 000 000:  Rate of Penetration (MWD Depth Ave.)
SGR  .GAPI   00 000 000 000:  CWR Calibrated Gamma
VIBC .CPS    00 000 000 000:  Vibration Count
~Parameter Information Block
~Other Information Block
~A        DEPTH           MTTV            ROP            SGR           VIBC 
# ...
     14336.0000     14256.6797        17.5100        29.3500        58.9600 
     14336.2500     14256.7998        14.5400        34.3300        80.2500 
     14336.5000     14256.9199        11.5600        40.6600       101.0000 
     14336.7500     14257.0400        15.3000        46.6900        92.3000 
     14337.0000     14257.1504        19.0500        50.3100        64.1700 
     14337.2500     14257.2695        16.6500        60.2400        36.0300 
     14337.5000     14257.3896        14.2600        69.6400        36.9000 
     14337.7500     14257.5000        15.4100        78.7000        89.5600 
     14338.0000     14257.6201        16.5500        86.3300        91.6300 
     14338.2500     14257.7402        15.4800        91.4300        84.0400 
     14338.5000     14257.8496        14.4000        88.7900        76.4100 
     14338.7500     14257.9697        15.7600        86.9100        76.9800 
     14339.0000     14258.0801        17.1100        83.6200        66.5600 
     14339.2500     14258.2002        16.2100        75.0200        25.5900 
     14339.5000     14258.3096        15.3000        66.0600        17.0700 
     14339.7500     14258.4297        10.9300        57.5400        49.4400 
     14340.0000     14258.5400         6.5500        52.6000        81.8100 
     14340.2500     14258.6504         9.5600        52.9300        89.2000 
     14340.5000     14258.7695        12.5800        54.6200       102.4600 
     14340.7500     14258.8799        16.3200        56.6300       164.6300 
     14341.0000     14258.9902        20.0700        61.0600       226.7900 
     14341.2500     14259.1104        15.8100        59.7200       184.8900 
     14341.5000     14259.2197        11.5600        64.4800       123.1300 
     14341.7500     14259.3301        16.6700        71.5600        62.6600 
     14342.0000     14259.4404        21.7800        78.4500        34.3200 
     14342.2500     14259.5498        25.1900        82.4800        15.3000 
     14342.5000     14259.6602        28.6000        79.3400        10.3800 
     14342.7500     14259.7695        23.2700        75.6200         5.4400 
     14343.0000     14259.8799        17.9700        73.1500        66.1500 
     14343.2500     14259.9902        23.5300        73.7000        48.8400 
     14343.5000     14260.0996        29.1000        74.2300        31.5300 
     14343.7500     14260.2100        39.4100        71.1300        14.2100 
     14344.0000     14260.3203        49.7200        65.9000        72.0600 
     14344.2500     14260.4297        38.3500        63.5400        64.8100 
     14344.5000     14260.5303        26.9700        60.6900        49.4300 
     14344.7500     14260.6396        20.8300        57.2000        42.4800 
     14345.0000     14260.7500        14.7000        54.0700        35.5300 
     14345.2500     14260.8496        24.5900        55.5000        26.2500 
     14345.5000     14260.9600        34.4800        58.7600        16.7700 
     14345.7500     14261.0703        27.3100        62.0300        12.8500 
     14346.0000     14261.1699        20.1500        59.4400        12.6000 
     14346.2500     14261.2803        21.9100        62.5000        12.3500 
     14346.5000     14261.3799        23.6700        58.9100        36.2900 
     14346.7500     14261.4902        36.7100        59.3600        76.1800 
     14347.0000     14261.5898        49.7400        56.6000        36.4200 
     14347.2500     14261.7002        31.8400        54.7500       115.8800 
     14347.5000     14261.7998        14.0600        53.5300        99.6100 
     14347.7500     14261.9004        16.0000        52.6000        56.2800 
     14348.0000     14262.0098        17.9300        53.2700       184.6700 
     14348.2500     14262.1104        14.9700        53.9400        88.8500 
     14348.5000     14262.2100        12.0100        54.8800       158.4000 
     14348.7500     14262.3096        11.4500        55.1400       477.7700 
     14349.0000     14262.4102        10.9000        52.4500       405.1400 
     14349.2500     14262.5098        16.4600        49.1600       332.5100 
     14349.5000     14262.6104        22.0200        45.4700       259.8800 
     14349.7500     14262.7100        16.7500        48.4300        42.3500 
     14350.0000     14262.8096        11.4700        51.3900        73.3500 
     14350.2500     14262.9102        19.1100        47.3500       132.1500 
     14350.5000     14263.0098        26.7600        49.0700       216.7000 
     14350.7500     14263.1104        30.3000        47.3600       127.9300 
     14351.0000     14263.2100        33.8300        50.8400        93.3800 
     14351.2500     14263.3096        24.8100        55.8100        71.1500 
     14351.5000     14263.4102        15.7300        64.5800        48.7900 
     14351.7500     14263.5000        37.7500        72.5000        97.6700 
     14352.0000     14263.5996        59.7700        76.4800        60.5000 
     14352.2500     14263.7002        39.8500        77.7200        46.5000 
     14352.5000     14263.7900        19.9200        77.7200        32.5000 
     14352.7500     14263.8896        19.9400        75.4600        18.5000 
     14353.0000     14263.9805        19.9500        71.8100         4.4900 
     14353.2500     14264.0801        35.0800        71.8100       138.8800 
     14353.5000     14264.1699        50.2000        56.7600        96.0400 
     14353.7500     14264.2695        30.6900        65.3500        53.2000 
     14354.0000     14264.3604        11.1900        57.8400        11.8900 
     14354.2500     14264.4600        12.7100        57.5000         8.9700 
     14354.5000     14264.5498        14.2300        57.1700         6.0400 
     14354.7500     14264.6396        11.5900        56.8300       141.2700 
     14355.0000     14264.7305         8.9500        57.1200       186.1000 
     14355.2500     14264.8301         6.8800        57.5700       192.7800 
     14355.5000     14264.9199         4.8200        59.0400       199.4500 
     14355.7500     14265.0098         7.4800        62.0600        93.1200 
     14356.0000     14265.0996        10.1500        61.3300        31.7700 
     14356.2500     14265.1904        14.3900        64.1200       100.9700 
     14356.5000     14265.2803        18.6300        72.3300       160.5900 
     14356.7500     14265.3701        14.1100        76.6700       151.0400 
     14357.0000     14265.4600         9.5900        82.8500       147.8900 
     14357.2500     14265.5498        10.9400        82.0100       165.3400 
     14357.5000     14265.6396        12.2900        78.8000       182.7900 
     14357.7500     14265.7305        11.3400        78.5700       200.2400 
     14358.0000     14265.8096        10.3900        79.0700       190.4200 
     14358.2500     14265.9004         9.0000        79.5700       165.3500 
     14358.5000     14265.9902         7.6100        80.0800       140.2700 
     14358.7500     14266.0801         9.7800        80.5800       187.4100 
     14359.0000     14266.1602        11.9500        81.0800       224.8600 
     14359.2500     14266.2500        19.2000        80.7700       192.7900 
     14359.5000     14266.3301        26.4500        77.1900       160.7200 
     14359.7500     14266.4199        17.4700        76.7400       128.6500 
     14360.0000     14266.5000         8.4800        76.8600       132.3100 
     14360.2500     14266.5898         8.2500        77.1300       174.8200 
     14360.5000     14266.6699         8.0100        73.4200       217.0700 
     14360.7500     14266.7598         7.7800        70.7300       232.0600 
     14361.0000     14266.8398         7.5500        65.3600       217.6200 
     14361.2500     14266.9199        12.1800        64.5600       203.1800 
     14361.5000     14267.0098        16.8100        63.7500       185.3900 
     14361.7500     14267.0898        16.2900        63.7500       143.4000 
