~Version Information Block
VERS .                 2.00:  CWLS LOG ASCII STANDARD - VERSION 2.00
WRAP .                   NO:  One line per depth step
~Well Information Block
#MNEM.UNIT        Data Type   Information
#---------- ----------------  -----------
STRT .F               14023:  START DEPTH
STOP .F               14654:  STOP DEPTH
STEP .F                0.25:  STEP
NULL .              -999.25:  NULL VALUE
COMP .            Whozit Co:  COMPANY
WELL .   Astn Chalk Example:  WELL
FLD  .             GIDDINGS:  FIELD
LOC  .           Fayette CO:  LOCATION
PROV .                   TX:  PROVINCE
SRVC .                  280:  SERVICE COMPANY
DATE .             5-MAY-32:  LOG DATE
API  .       xxxxxxxxxxxxxx:  API NUMBER
~Curve Information Block
#MNEM.UNIT         API CODE   Curve Description
#---------- ----------------  -----------------
DEPTH.F      00 000 000 000:  
MTTV .F      00 000 000 000:  MWD Tool Measurement TVD
ROP  .FT/H   00 000 000 000:  Rate of Penetration (MWD Depth Ave.)
SGR  .GAPI   00 000 000 000:  CWR Calibrated Gamma
VIBC .CPS    00 000 000 000:  Vibration Count
~Parameter Information Block
~Other Information Block
~A        DEPTH           MTTV            ROP            SGR           VIBC 
# ...
     14414.0000     14278.8096        32.6200        56.3300        26.7800 
     14414.2500     14278.8604        23.2600        56.4000        37.4000 
     14414.5000     14278.9004        13.9100        59.9900        40.5600 
     14414.7500     14278.9404        13.8400        61.7800        43.7100 
     14415.0000     14278.9805        13.7600        62.1400        46.4300 
     14415.2500     14279.0303        14.9400        61.7800        37.9900 
     14415.5000     14279.0703        16.1300        59.9900        34.0500 
     14415.7500     14279.1104        20.4700        59.5400        39.6700 
     14416.0000     14279.1504        24.8100        62.4100        45.2800 
     14416.2500     14279.2002        24.2600        61.7400        46.4100 
     14416.5000     14279.2402        23.7000        64.0900        47.1300 
     14416.7500     14279.2803        19.6300        62.5300       115.2000 
     14417.0000     14279.3203        15.5900        67.8800       111.5300 
     14417.2500     14279.3701        15.5100        70.6500        82.5900 
     14417.5000     14279.4102        15.4200        70.2000        66.3800 
     14417.7500     14279.4502        19.0000        75.5800        89.9600 
     14418.0000     14279.4902        22.5800        73.6100        88.9200 
     14418.2500     14279.5400        22.9900        72.2600        87.8800 
     14418.5000     14279.5801        23.4100        69.1300        87.6700 
     14418.7500     14279.6201        20.8800        65.9900        87.5800 
     14419.0000     14279.6602        18.3500        59.7800       118.3200 
     14419.2500     14279.7002        17.1100        57.9000        89.9600 
     14419.5000     14279.7500        15.8700        56.7600        61.6100 
     14419.7500     14279.7900        21.3300        59.4600        51.2200 
     14420.0000     14279.8301        26.7900        58.1100        86.5500 
     14420.2500     14279.8701        28.7500        59.5900       102.8300 
     14420.5000     14279.9199        30.7100        53.5400        57.8300 
     14420.7500     14279.9600        25.6600        57.9800        36.7900 
     14421.0000     14280.0000        20.5800        56.5800        93.2100 
     14421.2500     14280.0400        15.5400        56.7800       105.3900 
     14421.5000     14280.0801        10.4900        53.5400       103.9400 
     14421.7500     14280.1299        17.2800        56.9400       102.4800 
     14422.0000     14280.1699        24.0800        55.1500        96.6500 
     14422.2500     14280.2100        18.8200        54.1700        89.5000 
     14422.5000     14280.2500        13.5700        51.9300        76.4300 
     14422.7500     14280.2900        18.8700        55.4200        63.3700 
     14423.0000     14280.3301        24.1700        57.3100        66.5100 
     14423.2500     14280.3799        22.5900        55.1500       104.0000 
     14423.5000     14280.4199        21.0100        55.1500       103.4200 
     14423.7500     14280.4600        20.1100        56.4900       102.8400 
     14424.0000     14280.5000        19.2200        57.3000        93.7600 
     14424.2500     14280.5400        21.2500        54.6100        83.0600 
     14424.5000     14280.5898        23.2700        55.4200        43.5900 
     14424.7500     14280.6299        17.7500        53.4300        57.6700 
     14425.0000     14280.6699        12.2200        52.8900        29.7500 
     14425.2500     14280.7100        11.5100        51.6400        22.0000 
     14425.5000     14280.7598        10.8100        49.3700        34.1200 
     14425.7500     14280.7998         9.5800        49.7100        44.9500 
     14426.0000     14280.8398         8.3600        48.1600        55.7700 
     14426.2500     14280.8799         9.7400        49.2400        66.6000 
     14426.5000     14280.9199        11.1200        46.0100        45.0100 
     14426.7500     14280.9600        10.4200        49.3800        65.1800 
     14427.0000     14281.0098         9.7200        50.1300        85.3400 
     14427.2500     14281.0498        12.5200        49.9100       105.5000 
     14427.5000     14281.0898        15.3200        49.2300        43.7800 
     14427.7500     14281.1299        13.5000        50.2200        37.2600 
     14428.0000     14281.1699        11.6800        49.7800        67.1600 
     14428.2500     14281.2197        13.9500        51.5700        97.0600 
     14428.5000     14281.2598        16.2300        53.7200        20.5000 
     14428.7500     14281.2998        15.9400        55.0200        25.2100 
     14429.0000     14281.3398        15.6500        55.6900        50.4600 
     14429.2500     14281.3799        14.0000        56.4000        63.6300 
     14429.5000     14281.4199        12.3500        57.3000        45.0400 
     14429.7500     14281.4697        10.8100        57.3100        26.3300 
     14430.0000     14281.5098         9.2700        57.8300        75.8700 
     14430.2500     14281.5498        10.2200        56.1000        68.3400 
     14430.5000     14281.5898        11.1700        54.0700        60.8100 
     14430.7500     14281.6299        10.8700        55.2900        53.2800 
     14431.0000     14281.6699        10.5700        56.4100        45.7500 
     14431.2500     14281.7197        11.3500        56.9600        80.8200 
     14431.5000     14281.7598        12.1300        57.3000        69.6100 
     14431.7500     14281.7998        10.8400        56.4900        58.4100 
     14432.0000     14281.8398         9.5500        55.6900        62.0000 
     14432.2500     14281.8799         9.5300        56.8000        70.1900 
     14432.5000     14281.9199         9.5100        57.7600        65.6300 
     14432.7500     14281.9697         9.4500        58.7200         7.5600 
     14433.0000     14282.0098         9.3900        59.9900        15.1200 
     14433.2500     14282.0498         9.3300        61.3300        22.6900 
     14433.5000     14282.0898         9.2700        62.4000        29.8900 
     14433.7500     14282.1299        12.3400        63.8700        35.6500 
     14434.0000     14282.1699        15.4200        66.0800        41.4400 
     14434.2500     14282.2100        21.8200        64.9500        46.3300 
     14434.5000     14282.2598        28.2300        64.5600        44.9100 
     14434.7500     14282.2998        19.2300        68.1900        43.4900 
     14435.0000     14282.3398        10.2200        66.9800        42.9900 
     14435.2500     14282.3799        13.5500        65.9000        43.4800 
     14435.5000     14282.4199        16.8700        62.6800        43.9800 
     14435.7500     14282.4600        14.2700        62.1400        38.0700 
     14436.0000     14282.5000        11.6700        65.9000        31.9100 
     14436.2500     14282.5498        10.8800        61.3300        25.7400 
     14436.5000     14282.5898        10.0900        56.7600        36.0800 
     14436.7500     14282.6299        12.1400        58.2800        49.3800 
     14437.0000     14282.6699        14.1800        60.5200        21.6300 
     14437.2500     14282.7100        14.0400        57.8400        24.7500 
     14437.5000     14282.7500        13.9000        57.0300        27.8700 
     14437.7500     14282.7900        16.9000        55.0100        69.0000 
     14438.0000     14282.8301        19.9000        55.1500       120.2900 
     14438.2500     14282.8701        15.6200        54.8700       123.5700 
     14438.5000     14282.9102        11.3700        55.1600        94.6400 
     14438.7500     14282.9502        11.1600        57.8400        57.1800 
     14439.0000     14282.9902        10.9500        51.9300        32.7300 
     14439.2500     14283.0303        10.7400        52.8200        27.5100 
     14439.5000     14283.0801        10.5300        54.6100       109.5700 
     14439.7500     14283.1201        12.8800        54.6100        82.5000 
