~Version Information Block
VERS .                 2.00:  CWLS LOG ASCII STANDARD - VERSION 2.00
WRAP .                   NO:  One line per depth step
~Well Information Block
#MNEM.UNIT        Data Type   Information
#---------- ----------------  -----------
STRT .F               14023:  START DEPTH
STOP .F               14654:  STOP DEPTH
STEP .F                0.25:  STEP
NULL .              -999.25:  NULL VALUE
COMP .            Whozit Co:  COMPANY
WELL .   Astn Chalk Example:  WELL
FLD  .             GIDDINGS:  FIELD
LOC  .           Fayette CO:  LOCATION
PROV .                   TX:  PROVINCE
SRVC .                  280:  SERVICE COMPANY
DATE .             5-MAY-32:  LOG DATE
API  .       xxxxxxxxxxxxxx:  API NUMBER
~Curve Information Block
#MNEM.UNIT         API CODE   Curve Description
#---------- ----------------  -----------------
DEPTH.F      00 000 000 000:  
MTTV .F      00 000 000 000:  MWD Tool Measurement TVD
ROP  .FT/H   00 000 000 000:  Rate of Penetration (MWD Depth Ave.)
SGR  .GAPI   00 000 000 000:  CWR Calibrated Gamma
VIBC .CPS    00 000 000 000:  Vibration Count
~Parameter Information Block
~Other Information Block
~A        DEPTH           MTTV            ROP            SGR           VIBC 
# ...
     14310.0000     14242.7695         6.9800       116.4300        98.7400 
     14310.2500     14242.9199         9.0000       114.1500       137.0800 
     14310.5000     14243.0703        11.0200       116.4300        82.2000 
     14310.7500     14243.2197         9.8800       108.7500        95.7900 
     14311.0000     14243.3604         8.7400       102.4200        70.4300 
     14311.2500     14243.5098         6.8200        92.9000        51.7400 
     14311.5000     14243.6602         4.9000        87.9400        15.8700 
     14311.7500     14243.7998         9.5200        81.0400        24.3000 
     14312.0000     14243.9502        14.1500        81.4900        37.9300 
     14312.2500     14244.0996        12.7300        75.2400         2.1700 
     14312.5000     14244.2402        11.3000        75.5700       100.6200 
     14312.7500     14244.3896        10.9000        74.5600        80.6900 
     14313.0000     14244.5400        10.4900        72.1500        12.0100 
     14313.2500     14244.6797        13.4000        69.1300         6.1500 
     14313.5000     14244.8203        16.3100        66.9800        46.5600 
     14313.7500     14244.9697        14.8500        69.3900        90.7400 
     14314.0000     14245.1104        13.3800        68.0500        31.1400 
     14314.2500     14245.2598        11.1100        67.6000        33.7300 
     14314.5000     14245.4004         8.8300        64.8200        62.5800 
     14314.7500     14245.5400        15.7000        63.4800        89.9000 
     14315.0000     14245.6904        22.5600        57.1000        47.5200 
     14315.2500     14245.8301        29.4300        54.1000         7.2800 
     14315.5000     14245.9697        36.3000        54.2400        16.2300 
     14315.7500     14246.1201        25.6700        54.3700        28.3300 
     14316.0000     14246.2598        15.0400        54.5000        17.9200 
     14316.2500     14246.4004        21.3100        53.8100         5.1000 
     14316.5000     14246.5400        27.5800        49.7800        10.4900 
     14316.7500     14246.6797        17.6900        49.7700        26.1600 
     14317.0000     14246.8203         7.8700        48.9700        37.6900 
     14317.2500     14246.9600         9.9200        49.6400        40.6400 
     14317.5000     14247.0996        11.9800        50.6700        55.7100 
     14317.7500     14247.2402        13.6500        51.7900        82.6700 
     14318.0000     14247.3799        15.3100        55.6900        53.5400 
     14318.2500     14247.5195        12.3000        54.7900        24.4100 
     14318.5000     14247.6602         9.2900        53.0000        50.2500 
     14318.7500     14247.7998         7.2000        52.4200        73.0000 
     14319.0000     14247.9404         5.1100        51.8300        33.9400 
     14319.2500     14248.0801        22.4800        51.2500        27.0700 
     14319.5000     14248.2100        39.8400        50.6600        32.0500 
     14319.7500     14248.3496        26.9300        50.0800        28.2900 
     14320.0000     14248.4902        14.0100        49.5000        17.5900 
     14320.2500     14248.6299        18.4200        48.9100        27.7500 
     14320.5000     14248.7598        22.8300        48.3300        19.6100 
     14320.7500     14248.9004        18.3000        47.7400        34.9600 
     14321.0000     14249.0400        13.7600        49.2300        39.1400 
     14321.2500     14249.1699        19.8900        50.3000        71.3800 
     14321.5000     14249.3096        25.9700        49.7800        47.6400 
     14321.7500     14249.4502        32.0600        51.1200        23.8900 
     14322.0000     14249.5801        38.1500        49.9500        15.5000 
     14322.2500     14249.7100        47.9900        50.3200         6.8600 
     14322.5000     14249.8496        57.8400        51.0300         2.7500 
     14322.7500     14249.9805        39.4700        51.0000        20.1900 
     14323.0000     14250.1201        21.0900        53.3600        48.5700 
     14323.2500     14250.2500        24.4700        54.1700        76.9500 
     14323.5000     14250.3799        27.8400        54.6100        27.2400 
     14323.7500     14250.5195        18.5100        56.8500        44.0800 
     14324.0000     14250.6504         9.1700        59.4500        64.7500 
     14324.2500     14250.7803        13.1900        68.0500        85.4200 
     14324.5000     14250.9102        17.2000        69.3700        48.5000 
     14324.7500     14251.0498        16.4500        70.3500        17.5100 
     14325.0000     14251.1797        15.7100        71.3200        17.0300 
     14325.2500     14251.3096        14.8100        72.3000        17.4100 
     14325.5000     14251.4404        13.9000        74.2400        34.1600 
     14325.7500     14251.5703        11.9900        75.0900        16.1800 
     14326.0000     14251.7002        10.0800        74.2800        44.6700 
     14326.2500     14251.8301         8.1700        72.3400        28.7600 
     14326.5000     14251.9600         6.2600        69.6600        28.0400 
     14326.7500     14252.0898         7.8400        71.0200        33.9000 
     14327.0000     14252.2197         9.4100        72.5600        46.1800 
     14327.2500     14252.3496        10.0500        70.4100        70.3900 
     14327.5000     14252.4805        10.6800        68.4500        52.6200 
     14327.7500     14252.6104        10.2600        66.7700        34.8500 
     14328.0000     14252.7402         9.8400        65.8400        23.1800 
     14328.2500     14252.8604         9.0100        65.0900        35.3300 
     14328.5000     14252.9902         8.1800        64.3500        47.4700 
     14328.7500     14253.1201         8.0200        64.9500        56.2100 
     14329.0000     14253.2500         7.8600        68.5900        58.8900 
     14329.2500     14253.3701         9.4800        69.3900        61.5700 
     14329.5000     14253.5000        11.0900        64.2900        34.5600 
     14329.7500     14253.6299        12.7200        62.5400        45.8300 
     14330.0000     14253.7500        14.3400        53.5100        57.0300 
     14330.2500     14253.8799        10.5800        43.3100        68.9400 
     14330.5000     14254.0000         6.8200        46.0100        89.6500 
     14330.7500     14254.1299         7.0700        38.6500       149.8700 
     14331.0000     14254.2500         7.3200        39.8100        75.7200 
     14331.2500     14254.3799         8.8100        37.6800        68.9500 
     14331.5000     14254.5000        10.2900        38.4900       106.6200 
     14331.7500     14254.6299        13.5900        38.0400         9.1500 
     14332.0000     14254.7500        16.8800        37.4100        14.3100 
     14332.2500     14254.8701        20.1700        40.1200        19.4700 
     14332.5000     14254.9902        23.4700        42.7900        26.0400 
     14332.7500     14255.1201        22.8900        45.0300        33.7700 
     14333.0000     14255.2402        22.3100        42.8000        41.5200 
     14333.2500     14255.3604        29.8000        42.7900        49.2700 
     14333.5000     14255.4805        37.2800        36.3400        20.6900 
     14333.7500     14255.5996        24.9200        45.2200        22.4800 
     14334.0000     14255.7197        12.5600        44.9400        30.0900 
     14334.2500     14255.8496        14.3900        39.9600        21.0000 
     14334.5000     14255.9697        16.2000        38.6700       106.4400 
     14334.7500     14256.0898        14.4300        37.5200        66.9100 
     14335.0000     14256.2100        12.6600        30.4200       107.4400 
     14335.2500     14256.3301        15.4100        30.4200       111.3700 
     14335.5000     14256.4404        18.1600        30.4200        61.3500 
     14335.7500     14256.5596        17.8300        30.8700        36.8400 
