~Version Information Block
VERS .                 2.00:  CWLS LOG ASCII STANDARD - VERSION 2.00
WRAP .                   NO:  One line per depth step
~Well Information Block
#MNEM.UNIT        Data Type   Information
#---------- ----------------  -----------
STRT .F               14023:  START DEPTH
STOP .F               14654:  STOP DEPTH
STEP .F                0.25:  STEP
NULL .              -999.25:  NULL VALUE
COMP .            Whozit Co:  COMPANY
WELL .   Astn Chalk Example:  WELL
FLD  .             GIDDINGS:  FIELD
LOC  .           Fayette CO:  LOCATION
PROV .                   TX:  PROVINCE
SRVC .                  280:  SERVICE COMPANY
DATE .             5-MAY-32:  LOG DATE
API  .       xxxxxxxxxxxxxx:  API NUMBER
~Curve Information Block
#MNEM.UNIT         API CODE   Curve Description
#---------- ----------------  -----------------
DEPTH.F      00 000 000 000:  
MTTV .F      00 000 000 000:  MWD Tool Measurement TVD
ROP  .FT/H   00 000 000 000:  Rate of Penetration (MWD Depth Ave.)
SGR  .GAPI   00 000 000 000:  CWR Calibrated Gamma
VIBC .CPS    00 000 000 000:  Vibration Count
~Parameter Information Block
~Other Information Block
~A        DEPTH           MTTV            ROP            SGR           VIBC 
# ...
     14544.0000     14294.6797        37.2000        34.9900       147.8300 
     14544.2500     14294.6904        28.0600        36.1400       120.5200 
     14544.5000     14294.7100        18.9200        35.1300        93.2100 
     14544.7500     14294.7197        19.7000        35.5300        65.8900 
     14545.0000     14294.7402        20.4800        36.8800        38.5800 
     14545.2500     14294.7500        21.2600        36.4300        59.3700 
     14545.5000     14294.7695        22.0300        35.7200        86.8400 
     14545.7500     14294.7803        22.8100        34.9600       106.3200 
     14546.0000     14294.7900        23.5900        34.1900       108.8700 
     14546.2500     14294.8096        33.6600        34.5700       111.4200 
     14546.5000     14294.8203        43.7300        34.9600       113.9700 
     14546.7500     14294.8398        31.7900        35.2600       116.5300 
     14547.0000     14294.8496        19.9200        35.2600       119.0800 
     14547.2500     14294.8604        20.8600        35.2600       121.6300 
     14547.5000     14294.8799        21.8000        36.3400       124.1800 
     14547.7500     14294.8896        22.1000        37.0100       126.7300 
     14548.0000     14294.9102        22.4100        35.9800       129.2800 
     14548.2500     14294.9199        23.1600        36.3400        77.1100 
     14548.5000     14294.9297        23.9100        36.3400        88.7700 
     14548.7500     14294.9502        26.6500        35.5300       100.4400 
     14549.0000     14294.9600        29.3900        32.0400       112.1100 
     14549.2500     14294.9697        29.6300        34.1200       123.7700 
     14549.5000     14294.9902        29.8800        33.1100       135.4400 
     14549.7500     14295.0000        24.9000        33.3800       147.1000 
     14550.0000     14295.0098        19.9200        33.6500       128.5000 
     14550.2500     14295.0303        21.7600        33.1100       107.3700 
     14550.5000     14295.0400        23.5900        32.5800        86.2400 
     14550.7500     14295.0498        19.0700        32.1300        65.1200 
     14551.0000     14295.0596        14.5500        32.0400        65.1000 
     14551.2500     14295.0801        19.0100        31.3900        93.5400 
     14551.5000     14295.0898        23.4500        30.8500        95.2800 
     14551.7500     14295.0996        16.2200        30.2500        97.0100 
     14552.0000     14295.1104         8.9900        29.3500        98.7400 
     14552.2500     14295.1299        11.5300        29.6200       100.4700 
     14552.5000     14295.1396        14.0600        29.8900       102.2100 
     14552.7500     14295.1504        13.6800        29.5500       103.9400 
     14553.0000     14295.1602        13.2900        29.1700       105.6700 
     14553.2500     14295.1797        22.7800        28.7200       107.4000 
     14553.5000     14295.1904        32.2700        28.2700       109.1400 
     14553.7500     14295.2002        22.8800        30.0700       110.8700 
     14554.0000     14295.2100        13.4900        29.3500       112.6000 
     14554.2500     14295.2305        14.9800        27.0200        96.1300 
     14554.5000     14295.2402        16.4800        26.1300        60.0100 
     14554.7500     14295.2500        20.5200        26.8600        47.3400 
     14555.0000     14295.2598        24.5600        27.5900        60.0000 
     14555.2500     14295.2695        24.0200        28.3200        72.6700 
     14555.5000     14295.2803        23.4700        29.0600        85.4100 
     14555.7500     14295.2998        27.2900        29.3500        98.0700 
     14556.0000     14295.3096        31.1000        29.3500       110.1100 
     14556.2500     14295.3203        25.2700        29.3500       106.3500 
     14556.5000     14295.3301        19.4300        29.3500       102.5900 
     14556.7500     14295.3398        20.6000        29.3500        98.8400 
     14557.0000     14295.3496        21.7700        29.1700        95.0800 
     14557.2500     14295.3604        23.1000        28.7200        91.3200 
     14557.5000     14295.3701        24.4200        28.2700        87.5700 
     14557.7500     14295.3896        22.4800        27.8300        83.8100 
     14558.0000     14295.4004        20.5300        29.3500        95.7600 
     14558.2500     14295.4102        27.3100        28.2700       113.8800 
     14558.5000     14295.4199        34.0900        27.2000       132.0000 
     14558.7500     14295.4297        26.2300        26.9300       150.1200 
     14559.0000     14295.4404        18.3700        26.6600       168.2400 
     14559.2500     14295.4502        17.1100        28.2700       125.2100 
     14559.5000     14295.4600        15.8600        27.9700        96.2400 
     14559.7500     14295.4697        14.6000        27.2000       100.0100 
     14560.0000     14295.4805        13.3300        26.4300       103.8000 
     14560.2500     14295.4902        12.0800        26.1300       107.5600 
     14560.5000     14295.5000        10.8200        25.3200       111.3300 
     14560.7500     14295.5098        27.4500        24.5600       115.0900 
     14561.0000     14295.5195        44.0700        24.7800       118.8500 
     14561.2500     14295.5303        38.8200        25.0100       122.6200 
     14561.5000     14295.5400        33.5600        24.9000       126.3800 
     14561.7500     14295.5498        22.5100        24.7000       130.1500 
     14562.0000     14295.5596        11.4600        24.5100       110.8100 
     14562.2500     14295.5703        19.9900        24.8500        87.0700 
     14562.5000     14295.5801        28.5200        25.4500        63.3200 
     14562.7500     14295.5898        22.9200        26.4600        39.5800 
     14563.0000     14295.5996        17.3200        26.0200        26.5500 
     14563.2500     14295.6104        21.3400        25.2100        26.9500 
     14563.5000     14295.6201        25.3600        24.8700        32.0700 
     14563.7500     14295.6299        22.4000        24.6500        37.2000 
     14564.0000     14295.6396        19.4300        24.8300        42.3200 
     14564.2500     14295.6504        18.1200        25.6400        47.4800 
     14564.5000     14295.6602        16.8100        26.3400        52.6100 
     14564.7500     14295.6699        27.1800        26.8800        57.7300 
     14565.0000     14295.6797        37.5500        27.2800        62.8600 
     14565.2500     14295.6904        34.5200        27.4700        67.9800 
     14565.5000     14295.7002        31.4900        27.6600        63.3100 
     14565.7500     14295.7100        22.7900        27.6200        56.2000 
     14566.0000     14295.7100        14.0900        27.4300        49.1000 
     14566.2500     14295.7197        17.4000        27.2400        41.9900 
     14566.5000     14295.7305        20.7100        28.6400        44.4400 
     14566.7500     14295.7402        20.6100        27.7400       115.8200 
     14567.0000     14295.7500        20.5200        26.5700       106.2800 
     14567.2500     14295.7598        25.1200        27.6900        76.6800 
     14567.5000     14295.7695        29.7200        28.8100        47.0900 
     14567.7500     14295.7803        29.4900        30.1600        36.0000 
     14568.0000     14295.7900        29.2600        28.6800        52.9700 
     14568.2500     14295.7998        27.1900        28.3400        69.9400 
     14568.5000     14295.8096        25.1000        28.0000        87.0200 
     14568.7500     14295.8203        30.9300        28.1500       103.9900 
     14569.0000     14295.8301        36.7700        29.5300       120.9700 
     14569.2500     14295.8301        33.2400        30.1500       137.9400 
     14569.5000     14295.8398        29.7200        31.5000       154.9100 
     14569.7500     14295.8496        30.9800        31.9500       171.8900 
