~Version Information Block
VERS .                 2.00:  CWLS LOG ASCII STANDARD - VERSION 2.00
WRAP .                   NO:  One line per depth step
~Well Information Block
#MNEM.UNIT        Data Type   Information
#---------- ----------------  -----------
STRT .F               14023:  START DEPTH
STOP .F               14654:  STOP DEPTH
STEP .F                0.25:  STEP
NULL .              -999.25:  NULL VALUE
COMP .            Whozit Co:  COMPANY
WELL .   Astn Chalk Example:  WELL
FLD  .             GIDDINGS:  FIELD
LOC  .           Fayette CO:  LOCATION
PROV .                   TX:  PROVINCE
SRVC .                  280:  SERVICE COMPANY
DATE .             5-MAY-32:  LOG DATE
API  .       xxxxxxxxxxxxxx:  API NUMBER
~Curve Information Block
#MNEM.UNIT         API CODE   Curve Description
#---------- ----------------  -----------------
DEPTH.F      00 000 000 000:  
MTTV .F      00 000 000 000:  MWD Tool Measurement TVD
ROP  .FT/H   00 000 000 000:  Rate of Penetration (MWD Depth Ave.)
SGR  .GAPI   00 000 000 000:  CWR Calibrated Gamma
VIBC .CPS    00 000 000 000:  Vibration Count
~Parameter Information Block
~Other Information Block
~A        DEPTH           MTTV            ROP            SGR           VIBC 
# ...
     14076.0000     14060.7402         8.0500        56.4900         4.7200 
     14076.2500     14060.9600         9.5400        58.1000         5.7800 
     14076.5000     14061.1797        11.0300        59.4500         6.8500 
     14076.7500     14061.4004         8.4200        60.9300         7.9100 
     14077.0000     14061.6299         5.8100        62.9400        41.1300 
     14077.2500     14061.8398         7.2500        64.9600        45.8000 
     14077.5000     14062.0703         8.6900        60.5300        26.1700 
     14077.7500     14062.2900         8.4100        60.5300        10.9900 
     14078.0000     14062.5098         8.1200        56.4800         0.1500 
     14078.2500     14062.7305         6.1600        52.2800         0.6900 
     14078.5000     14062.9502         4.2100        51.3900         1.2300 
     14078.7500     14063.1699         4.1500        51.7700         0.5000 
     14079.0000     14063.3896         4.0900        52.1600        33.3100 
     14079.2500     14063.6104         4.0200        53.5300        27.4300 
     14079.5000     14063.8301         3.9600        58.9200         3.2500 
     14079.7500     14064.0498        10.9600        62.2000         6.5400 
     14080.0000     14064.2695        17.9700        64.0800         9.8200 
     14080.2500     14064.4902        11.9500        65.4300        87.2800 
     14080.5000     14064.7100         5.9300        66.4400       206.2800 
     14080.7500     14064.9297         6.2300        71.3700       170.6800 
     14081.0000     14065.1504         6.5400        70.7400        48.5000 
     14081.2500     14065.3701         5.9200        68.2300       334.3800 
     14081.5000     14065.5898         5.3100        69.1300       300.5800 
     14081.7500     14065.8096         6.4000        66.7800       266.7800 
     14082.0000     14066.0303         7.4800        65.4700       232.9700 
     14082.2500     14066.2500         8.5700        65.7400       199.1700 
     14082.5000     14066.4697         9.6600        65.4900       165.1500 
     14082.7500     14066.6904        16.0500        64.4900       131.3500 
     14083.0000     14066.9102        22.4300        62.6700        58.2600 
     14083.2500     14067.1299        18.3000        65.3700        95.5800 
     14083.5000     14067.3398        14.1700        65.2900        25.9000 
     14083.7500     14067.5596        17.8200        64.5200        94.5700 
     14084.0000     14067.7803        21.4800        63.7500       163.2400 
     14084.2500     14068.0000        18.8300        63.0800       154.9000 
     14084.5000     14068.2197        16.1900        62.4100       131.8600 
     14084.7500     14068.4404        13.8200        61.7300       108.8200 
     14085.0000     14068.6602        11.4600        66.4400        85.7800 
     14085.2500     14068.8799        17.4500        70.1400        62.7300 
     14085.5000     14069.0996        23.4500        64.4100        39.6900 
     14085.7500     14069.3096        14.5700        63.0600        36.0700 
     14086.0000     14069.5303         5.6800        64.6000        36.1600 
     14086.2500     14069.7500         4.1100        66.1300        36.2400 
     14086.5000     14069.9697         2.5500        66.2600        36.3300 
     14086.7500     14070.1904         6.9800        66.0300        36.4200 
     14087.0000     14070.4102        11.3900        65.9000        36.5000 
     14087.2500     14070.6299         9.6200        66.6400        36.5900 
     14087.5000     14070.8398         7.8400        70.3400        36.6700 
     14087.7500     14071.0596         7.6200        71.3500        71.6000 
     14088.0000     14071.2803         7.4000        70.5800       357.7000 
     14088.2500     14071.5000         6.6100        69.8200       475.1600 
     14088.5000     14071.7197         5.8200        70.1200       410.5100 
     14088.7500     14071.9404         5.1600        70.7000       345.8500 
     14089.0000     14072.1504         4.4900        71.2800       281.1900 
     14089.2500     14072.3701         4.7400        71.6100       216.5300 
     14089.5000     14072.5898         4.9900        71.9500       151.8700 
     14089.7500     14072.8096        12.2000        72.2800        87.2100 
     14090.0000     14073.0303        19.4200        71.2800        49.1200 
     14090.2500     14073.2402        14.1900        69.9300        51.3300 
     14090.5000     14073.4600         8.9600        68.5900        53.5300 
     14090.7500     14073.6797         7.8300        67.1300        46.2500 
     14091.0000     14073.9004         6.6900        65.6000        31.4700 
     14091.2500     14074.1201         6.7200        64.0600        16.5900 
     14091.5000     14074.3301         6.7500        67.6300         1.8000 
     14091.7500     14074.5498         6.7800        72.4600         0.0000 
     14092.0000     14074.7695         6.8100        69.6600         0.0000 
     14092.2500     14074.9805         7.6000        66.5200        81.0300 
     14092.5000     14075.2002         8.4000        69.6600        57.2200 
     14092.7500     14075.4199         8.4000        72.8000        33.4000 
     14093.0000     14075.6396         8.4000        73.2100        38.9100 
     14093.2500     14075.8496        13.8400        72.9400        48.4900 
     14093.5000     14076.0703        19.2700        70.7300        58.0700 
     14093.7500     14076.2900        12.8600        69.9300        65.9100 
     14094.0000     14076.5000         6.4500        70.1100        66.6900 
     14094.2500     14076.7197         6.1100        69.8900       172.2200 
     14094.5000     14076.9404         5.7700        69.6600       137.1900 
     14094.7500     14077.1602         7.1400        70.0500       102.1600 
     14095.0000     14077.3701         8.5100        70.4300        67.1300 
     14095.2500     14077.5898         8.8200        71.2700        32.1100 
     14095.5000     14077.8096         9.1400        73.9800        27.1300 
     14095.7500     14078.0195         9.8900        77.0200        67.0600 
     14096.0000     14078.2402        10.6300        81.4900        22.9200 
     14096.2500     14078.4600         8.6500        78.0300        13.9100 
     14096.5000     14078.6699         6.6700        74.5800        16.1800 
     14096.7500     14078.8896         6.0900        71.7400        18.3200 
     14097.0000     14079.1104         5.5000        71.3700        32.6500 
     14097.2500     14079.3301         6.9100        71.0100        44.4300 
     14097.5000     14079.5400         8.3100        70.6400        22.7000 
     14097.7500     14079.7598         7.8300        70.2700         6.7500 
     14098.0000     14079.9697         7.3500        71.4900         1.8500 
     14098.2500     14080.1904         7.2300        73.1000         1.7700 
     14098.5000     14080.4102         7.1200        72.3500        48.4100 
     14098.7500     14080.6201         6.4100        71.0100        16.6800 
     14099.0000     14080.8398         5.6900        69.6600        46.9100 
     14099.2500     14081.0596         5.3400        72.0100        50.0100 
     14099.5000     14081.2695         5.0000        74.3600        43.9500 
     14099.7500     14081.4902        10.1500        76.7200        38.5300 
     14100.0000     14081.7002        15.2700        77.4600        43.3800 
     14100.2500     14081.9199        18.0500        77.7900        48.2400 
     14100.5000     14082.1396        20.8200        78.1300        54.3600 
     14100.7500     14082.3496        13.2400        77.1100        69.6200 
     14101.0000     14082.5703         5.6700        75.1900        84.8800 
     14101.2500     14082.7803         9.0900        73.2700       240.3400 
     14101.5000     14083.0000        12.5100        71.8100       360.1400 
     14101.7500     14083.2100        16.8700        70.4700        64.6200 
