~Version Information Block
VERS .                 2.00:  CWLS LOG ASCII STANDARD - VERSION 2.00
WRAP .                   NO:  One line per depth step
~Well Information Block
#MNEM.UNIT        Data Type   Information
#---------- ----------------  -----------
STRT .F               14023:  START DEPTH
STOP .F               14654:  STOP DEPTH
STEP .F                0.25:  STEP
NULL .              -999.25:  NULL VALUE
COMP .            Whozit Co:  COMPANY
WELL .   Astn Chalk Example:  WELL
FLD  .             GIDDINGS:  FIELD
LOC  .           Fayette CO:  LOCATION
PROV .                   TX:  PROVINCE
SRVC .                  280:  SERVICE COMPANY
DATE .             5-MAY-32:  LOG DATE
API  .       xxxxxxxxxxxxxx:  API NUMBER
~Curve Information Block
#MNEM.UNIT         API CODE   Curve Description
#---------- ----------------  -----------------
DEPTH.F      00 000 000 000:  
MTTV .F      00 000 000 000:  MWD Tool Measurement TVD
ROP  .FT/H   00 000 000 000:  Rate of Penetration (MWD Depth Ave.)
SGR  .GAPI   00 000 000 000:  CWR Calibrated Gamma
VIBC .CPS    00 000 000 000:  Vibration Count
~Parameter Information Block
~Other Information Block
~A        DEPTH           MTTV            ROP            SGR           VIBC 
# ...
     14466.0000     14287.0303        14.0100        40.3700        41.9500 
     14466.2500     14287.0596        14.9300        42.4100        29.3000 
     14466.5000     14287.0996        15.8500        42.6800        56.2300 
     14466.7500     14287.1299        17.9700        42.2500        81.3300 
     14467.0000     14287.1699        20.0800        40.8500        44.0500 
     14467.2500     14287.2002        22.9400        41.3900        71.6500 
     14467.5000     14287.2305        25.8100        41.7100        99.2500 
     14467.7500     14287.2695        18.2800        41.7100       126.8500 
     14468.0000     14287.2998        10.7600        41.7100       154.4500 
     14468.2500     14287.3301        13.7400        41.0400        42.9600 
     14468.5000     14287.3701        16.7300        40.2800        45.2700 
     14468.7500     14287.4004        15.5900        39.8400        80.4200 
     14469.0000     14287.4404        14.4600        41.1700       120.2400 
     14469.2500     14287.4697        24.4700        41.7200       106.2700 
     14469.5000     14287.5000        34.4800        40.6400        11.7800 
     14469.7500     14287.5400        24.9100        40.0100        12.3700 
     14470.0000     14287.5703        15.3500        36.8800        21.9900 
     14470.2500     14287.5996        13.6800        41.0300        47.7500 
     14470.5000     14287.6299        12.0100        41.7100       135.5000 
     14470.7500     14287.6699        10.9000        41.1800        96.5000 
     14471.0000     14287.7002         9.8000        40.1000        57.5000 
     14471.2500     14287.7305         8.1000        40.4400        73.4800 
     14471.5000     14287.7695         6.4100        40.1000       111.0600 
     14471.7500     14287.7998        14.2400        40.7800       140.5900 
     14472.0000     14287.8301        22.0600        40.1000        73.4500 
     14472.2500     14287.8604        15.0100        39.2000        60.2200 
     14472.5000     14287.9004         7.9500        40.1000        89.7500 
     14472.7500     14287.9297        13.1000        40.1000       119.2900 
     14473.0000     14287.9600        18.2900        39.3800        30.4500 
     14473.2500     14287.9902        15.5100        39.0200        26.8500 
     14473.5000     14288.0303        12.7200        38.3000        28.8100 
     14473.7500     14288.0596        16.1700        37.1400        32.4800 
     14474.0000     14288.0898        19.6100        37.2400        36.1600 
     14474.2500     14288.1201        18.3700        36.2000        37.7200 
     14474.5000     14288.1504        17.1300        37.6800        38.8800 
     14474.7500     14288.1904        17.8000        40.7800        40.0500 
     14475.0000     14288.2197        18.4700        38.4900        41.2100 
     14475.2500     14288.2500        18.3500        39.0200       129.0600 
     14475.5000     14288.2803        18.2300        39.7600        72.0700 
     14475.7500     14288.3096        19.1500        40.2700        44.4200 
     14476.0000     14288.3398        20.0600        40.7700        24.0300 
     14476.2500     14288.3799        19.7300        41.4400        56.9600 
     14476.5000     14288.4102        19.3900        42.7900        87.4400 
     14476.7500     14288.4404        20.2600        42.7900         9.1700 
     14477.0000     14288.4697        21.1300        42.6500        13.5200 
     14477.2500     14288.5000        17.3300        42.3200        78.1500 
     14477.5000     14288.5303        13.5000        41.1700        77.4300 
     14477.7500     14288.5596         6.7500        41.3100        40.6900 
     14478.0000     14288.5996         0.0000        45.6600        80.0500 
     14478.2500     14288.6299         4.2300        47.0300        68.6700 
     14478.5000     14288.6602         8.4600        46.7300        57.2800 
     14478.7500     14288.6904        11.0600        46.4300        45.9000 
     14479.0000     14288.7197        13.6500        46.1300        47.0700 
     14479.2500     14288.7500        12.0600        44.9400        41.0400 
     14479.5000     14288.7803        10.4600        41.7100        35.0200 
     14479.7500     14288.8096        24.3800        41.5100        28.9900 
     14480.0000     14288.8398        38.2900        40.5000        22.9600 
     14480.2500     14288.8701        29.3600        39.5000        25.4300 
     14480.5000     14288.9004        20.4200        38.4900        28.6000 
     14480.7500     14288.9297        23.6100        41.1800        31.7700 
     14481.0000     14288.9600        26.7900        39.5700        34.9400 
     14481.2500     14288.9902        25.5000        40.4900        38.1100 
     14481.5000     14289.0195        24.2200        40.8200        47.0000 
     14481.7500     14289.0498        21.7100        40.1000        78.8700 
     14482.0000     14289.0801        19.2200        39.2900        71.6700 
     14482.2500     14289.1104        18.9600        38.6200        47.4500 
     14482.5000     14289.1396        18.7000        38.4900        33.6700 
     14482.7500     14289.1699        15.6600        37.9800        21.3400 
     14483.0000     14289.2002        12.6300        37.4800         9.0000 
     14483.2500     14289.2305        17.5100        36.9800        89.1900 
     14483.5000     14289.2598        22.3900        35.8000        82.3500 
     14483.7500     14289.2900        27.2700        38.0400        75.5100 
     14484.0000     14289.3203        32.1500        35.6100        69.4500 
     14484.2500     14289.3496        27.4100        34.5900        63.4200 
     14484.5000     14289.3799        22.6700        35.2600        65.5600 
     14484.7500     14289.4102        18.5200        35.7100        57.2300 
     14485.0000     14289.4404        14.3800        36.0200        39.0000 
     14485.2500     14289.4600        18.6600        36.2800        40.6900 
     14485.5000     14289.4902        22.9400        36.5500        30.2100 
     14485.7500     14289.5195        23.3800        36.8200        19.2400 
     14486.0000     14289.5498        23.8300        34.3600        69.8900 
     14486.2500     14289.5801        27.4300        36.3500        78.0800 
     14486.5000     14289.6104        31.0200        37.4100        37.6700 
     14486.7500     14289.6396        31.0200        37.4100        29.0300 
     14487.0000     14289.6699        31.0200        36.8800        49.8000 
     14487.2500     14289.7002        21.6500        35.5300        70.5700 
     14487.5000     14289.7197        12.2700        36.0700        91.3400 
     14487.7500     14289.7500        31.3900        37.4100       101.5500 
     14488.0000     14289.7803        50.5200        36.8800        84.9000 
     14488.2500     14289.8096        55.7500        35.8000        68.2500 
     14488.5000     14289.8398        60.9800        35.8000        38.5500 
     14488.7500     14289.8701        36.6300        36.2000        35.6600 
     14489.0000     14289.8896        12.2800        36.6100        42.4100 
     14489.2500     14289.9199        18.6000        37.0100       102.7400 
     14489.5000     14289.9502        24.9100        37.4100        31.0200 
     14489.7500     14289.9805        52.5900        37.8600        37.9800 
     14490.0000     14290.0000        80.2700        39.8200        44.9300 
     14490.2500     14290.0303        53.7400        40.7800        51.8900 
     14490.5000     14290.0596        27.0400        40.1000        58.8900 
     14490.7500     14290.0898        32.3800        45.0300        65.8500 
     14491.0000     14290.1201        37.7200        46.0100        72.8100 
     14491.2500     14290.1396        38.9400        43.4000        68.0300 
     14491.5000     14290.1699        40.1600        47.0900        45.4700 
     14491.7500     14290.2002        37.7900        49.4400        31.4200 
