~Version Information Block
VERS .                 2.00:  CWLS LOG ASCII STANDARD - VERSION 2.00
WRAP .                   NO:  One line per depth step
~Well Information Block
#MNEM.UNIT        Data Type   Information
#---------- ----------------  -----------
STRT .F               14023:  START DEPTH
STOP .F               14654:  STOP DEPTH
STEP .F                0.25:  STEP
NULL .              -999.25:  NULL VALUE
COMP .            Whozit Co:  COMPANY
WELL .   Astn Chalk Example:  WELL
FLD  .             GIDDINGS:  FIELD
LOC  .           Fayette CO:  LOCATION
PROV .                   TX:  PROVINCE
SRVC .                  280:  SERVICE COMPANY
DATE .             5-MAY-32:  LOG DATE
API  .       xxxxxxxxxxxxxx:  API NUMBER
~Curve Information Block
#MNEM.UNIT         API CODE   Curve Description
#---------- ----------------  -----------------
DEPTH.F      00 000 000 000:  
MTTV .F      00 000 000 000:  MWD Tool Measurement TVD
ROP  .FT/H   00 000 000 000:  Rate of Penetration (MWD Depth Ave.)
SGR  .GAPI   00 000 000 000:  CWR Calibrated Gamma
VIBC .CPS    00 000 000 000:  Vibration Count
~Parameter Information Block
~Other Information Block
~A        DEPTH           MTTV            ROP            SGR           VIBC 
# ...
     14180.0000     14148.4102         2.9600        58.4200         1.5700 
     14180.2500     14148.6104         4.0900        60.5500         9.7100 
     14180.5000     14148.8203         5.2100        62.6700        56.2500 
     14180.7500     14149.0195         4.9000        61.3300        33.6800 
     14181.0000     14149.2197         4.5900        59.9900        11.1000 
     14181.2500     14149.4199         5.2600        58.9300         2.6200 
     14181.5000     14149.6201         5.9400        59.0100         7.1700 
     14181.7500     14149.8203         5.0800        59.0900        11.0900 
     14182.0000     14150.0195         4.2200        59.1700        11.6800 
     14182.2500     14150.2305         3.4400        59.2600        12.2700 
     14182.5000     14150.4297         2.6600        59.3400        11.6200 
     14182.7500     14150.6299         2.9700        59.7400        10.1700 
     14183.0000     14150.8301         3.2800        60.3600         8.7200 
     14183.2500     14151.0303         3.4000        60.9800         7.2500 
     14183.5000     14151.2305         3.5200        61.6000         5.6900 
     14183.7500     14151.4297         7.3200        61.7800         4.1200 
     14184.0000     14151.6299        11.1200        61.9600         3.6700 
     14184.2500     14151.8301         8.2100        62.2000         4.6200 
     14184.5000     14152.0400         5.3000        62.7000         4.2500 
     14184.7500     14152.2402         6.6800        63.1900         3.0000 
     14185.0000     14152.4404         8.0600        63.6900         4.2500 
     14185.2500     14152.6396         9.4400        64.1900         6.1300 
     14185.5000     14152.8398        10.8200        64.0600         9.7200 
     14185.7500     14153.0400        10.5200        63.7800        13.7300 
     14186.0000     14153.2402        10.2100        63.5000        14.6400 
     14186.2500     14153.4404         8.0700        63.5800        11.5100 
     14186.5000     14153.6396         5.9100        63.6600         8.3700 
     14186.7500     14153.8398         6.3900        63.7300         5.2400 
     14187.0000     14154.0400         6.8800        63.3500        13.9800 
     14187.2500     14154.2402         7.6200        62.8400       103.3000 
     14187.5000     14154.4404         8.3600        62.3400        62.4300 
     14187.7500     14154.6396         7.2200        62.3500        21.5700 
     14188.0000     14154.8398         6.0700        62.7100        32.6500 
     14188.2500     14155.0400         6.4400        63.2000        45.8100 
     14188.5000     14155.2402         6.8100        64.2600        45.5400 
     14188.7500     14155.4404         6.5900        65.3200        21.2900 
     14189.0000     14155.6396         6.3600        66.3800         5.4600 
     14189.2500     14155.8398         6.3600        67.0500         4.6400 
     14189.5000     14156.0400         6.3500        67.4500         3.8200 
     14189.7500     14156.2402         6.6000        67.8600         9.2400 
     14190.0000     14156.4297         6.8500        68.2600        17.0800 
     14190.2500     14156.6299         7.4000        68.8900        18.1100 
     14190.5000     14156.8301         7.9500        70.4000        27.4900 
     14190.7500     14157.0303         7.3500        71.9100        30.5600 
     14191.0000     14157.2305         6.7500        73.4200        27.7600 
     14191.2500     14157.4297         6.8500        74.5300        24.9800 
     14191.5000     14157.6299         6.9500        75.6300        22.2000 
     14191.7500     14157.8301         7.0800        76.7300        18.7300 
     14192.0000     14158.0303         7.2100        77.8300        15.1300 
     14192.2500     14158.2197         7.3400        79.4000        11.5200 
     14192.5000     14158.4199         7.4700        81.2800         8.6800 
     14192.7500     14158.6201         7.6100        83.1600         9.7700 
     14193.0000     14158.8203         7.7400        85.0400        10.8700 
     14193.2500     14159.0195         7.8700        86.9200        29.7800 
     14193.5000     14159.2100         8.0000        88.8000        78.0200 
     14193.7500     14159.4102         8.1200        89.1800         7.0300 
     14194.0000     14159.6104         8.2500        88.5600        27.4700 
     14194.2500     14159.8096         8.3700        87.9400        47.9100 
     14194.5000     14160.0000         8.5000        87.3200        61.2000 
     14194.7500     14160.2002         8.6200        86.7000        51.5000 
     14195.0000     14160.4004         8.7500        86.0300        41.8000 
     14195.2500     14160.5996         8.8800        85.2800        38.5400 
     14195.5000     14160.7900         9.0000        84.5300        36.5200 
     14195.7500     14160.9902         8.0000        83.7900        34.5000 
     14196.0000     14161.1904         7.0000        83.3300        71.6000 
     14196.2500     14161.3799         6.0000        82.9500       114.1200 
     14196.5000     14161.5801         5.0000        82.5600         6.2700 
     14196.7500     14161.7803         5.5000        82.7000         4.4000 
     14197.0000     14161.9697         6.0000        82.8300         2.5300 
     14197.2500     14162.1699         6.5000        82.9700         0.8700 
     14197.5000     14162.3701         7.0000        83.1000        24.0600 
     14197.7500     14162.5596         7.7500        82.5000        49.3400 
     14198.0000     14162.7598         8.5000        81.9100         0.0000 
     14198.2500     14162.9600         9.2500        81.3100         0.0000 
     14198.5000     14163.1504        10.0000        80.5200         0.0000 
     14198.7500     14163.3496        10.5000        79.4500         2.9100 
     14199.0000     14163.5400        11.0000        79.7800         0.0000 
     14199.2500     14163.7402        11.5000        82.2500         1.3400 
     14199.5000     14163.9404        12.0000        84.7100         6.3300 
     14199.7500     14164.1299        11.9300        84.7100        34.2200 
     14200.0000     14164.3301        11.8700        84.7100        15.9000 
     14200.2500     14164.5195        11.8000        84.7100         7.7100 
     14200.5000     14164.7197        11.7400        84.7100        25.3000 
     14200.7500     14164.9102        11.6700        83.8200        53.7600 
     14201.0000     14165.1104        11.6100        82.9200       105.2600 
     14201.2500     14165.2998         9.5700        82.0300        82.3300 
     14201.5000     14165.5000         7.5300        81.0100        40.9300 
     14201.7500     14165.6904         8.4500        79.8000       101.2500 
     14202.0000     14165.8896         9.3800        78.5900       108.7200 
     14202.2500     14166.0801         7.0800        77.3800        15.6000 
     14202.5000     14166.2803         4.7700        77.4800        17.0900 
     14202.7500     14166.4697         9.6000        79.5700        18.5700 
     14203.0000     14166.6699        14.4200        81.6700        77.7100 
     14203.2500     14166.8604         9.9300        83.7600        12.1100 
     14203.5000     14167.0596         5.4400        84.3700         7.0100 
     14203.7500     14167.2500        10.1300        84.6100         3.3900 
     14204.0000     14167.4502        14.8600        84.8600        11.2000 
     14204.2500     14167.6396        15.6800        85.1000        18.9500 
     14204.5000     14167.8301        16.5100        85.6800        21.5000 
     14204.7500     14168.0303        11.5900        86.7500        16.9200 
     14205.0000     14168.2197         6.6700        87.9400         0.0000 
     14205.2500     14168.4102         8.6900        89.2800         0.0000 
     14205.5000     14168.6104        10.7100        88.8300         2.8500 
     14205.7500     14168.7998        11.4800        87.9400         0.7500 
