~Version Information Block
VERS .                 2.00:  CWLS LOG ASCII STANDARD - VERSION 2.00
WRAP .                   NO:  One line per depth step
~Well Information Block
#MNEM.UNIT        Data Type   Information
#---------- ----------------  -----------
STRT .F               14023:  START DEPTH
STOP .F               14654:  STOP DEPTH
STEP .F                0.25:  STEP
NULL .              -999.25:  NULL VALUE
COMP .            Whozit Co:  COMPANY
WELL .   Astn Chalk Example:  WELL
FLD  .             GIDDINGS:  FIELD
LOC  .           Fayette CO:  LOCATION
PROV .                   TX:  PROVINCE
SRVC .                  280:  SERVICE COMPANY
DATE .             5-MAY-32:  LOG DATE
API  .       xxxxxxxxxxxxxx:  API NUMBER
~Curve Information Block
#MNEM.UNIT         API CODE   Curve Description
#---------- ----------------  -----------------
DEPTH.F      00 000 000 000:  
MTTV .F      00 000 000 000:  MWD Tool Measurement TVD
ROP  .FT/H   00 000 000 000:  Rate of Penetration (MWD Depth Ave.)
SGR  .GAPI   00 000 000 000:  CWR Calibrated Gamma
VIBC .CPS    00 000 000 000:  Vibration Count
~Parameter Information Block
~Other Information Block
~A        DEPTH           MTTV            ROP            SGR           VIBC 
# ...
     14258.0000     14207.7900         1.8300        83.9100        37.2100 
     14258.2500     14207.9697         2.0300        82.0200        32.8200 
     14258.5000     14208.1504         2.2200        66.9800        28.4400 
     14258.7500     14208.3301         1.9100        66.6400        60.4900 
     14259.0000     14208.5098         1.5900        69.1300         4.2000 
     14259.2500     14208.7002         1.7200        72.1400        35.0500 
     14259.5000     14208.8799         1.8400        71.2800         7.2500 
     14259.7500     14209.0596         1.6200        73.7600         5.4900 
     14260.0000     14209.2402         1.4000        72.7600        22.7300 
     14260.2500     14209.4199         1.4500        74.5100         0.0700 
     14260.5000     14209.5996         1.5000        71.8100         0.0000 
     14260.7500     14209.7803         2.1200        70.4700        23.4900 
     14261.0000     14209.9600         2.7400        69.1300         0.0000 
     14261.2500     14210.1504         4.3000        70.2500         0.0000 
     14261.5000     14210.3301         5.8500        71.3700         0.0000 
     14261.7500     14210.5098         7.9700        71.9300         7.1600 
     14262.0000     14210.6904        10.0900        72.1200        66.9300 
     14262.2500     14210.8701         8.6600        72.3100         0.2500 
     14262.5000     14211.0498         7.2400        79.8800        39.3400 
     14262.7500     14211.2305         8.2400        88.3600        78.4300 
     14263.0000     14211.4102         9.2400        91.7000        95.7100 
     14263.2500     14211.5898         6.9700        94.5200        34.5100 
     14263.5000     14211.7695         4.7000        95.1900        98.6300 
     14263.7500     14211.9502         4.4300        97.0700        24.6400 
     14264.0000     14212.1299         4.1500        97.3300        15.3500 
     14264.2500     14212.3096         4.1600       100.6900        29.0300 
     14264.5000     14212.4902         4.1800       101.7300         5.9400 
     14264.7500     14212.6699         4.9500       102.3200         9.9400 
     14265.0000     14212.8496         5.7100        99.7700        10.4100 
     14265.2500     14213.0303         6.4900       102.1800        12.0600 
     14265.5000     14213.2100         7.2700       101.9100        15.6000 
     14265.7500     14213.3896        12.2600       107.3000        25.4400 
     14266.0000     14213.5703        17.2500       106.5600        23.3900 
     14266.2500     14213.7500        14.4000       105.4100         1.1100 
     14266.5000     14213.9297        11.5400       110.5100        12.5000 
     14266.7500     14214.1104         9.9400       110.2500         6.3900 
     14267.0000     14214.2900         8.3300       107.2900        11.9500 
     14267.2500     14214.4697        10.8500       105.9500        78.6800 
     14267.5000     14214.6504        13.3700       102.9900       145.4200 
     14267.7500     14214.8301        14.4400       104.6000         1.4000 
     14268.0000     14215.0098        15.5100        99.7600         0.8000 
     14268.2500     14215.1904        17.1700       102.4500         0.6000 
     14268.5000     14215.3701        18.8300       105.1400         0.3100 
     14268.7500     14215.5498        16.0100       101.9200         0.0200 
     14269.0000     14215.7305        13.1800        99.0300         3.8800 
     14269.2500     14215.9102        12.2600        92.4600         8.0900 
     14269.5000     14216.0898        11.3500        86.8600        13.8600 
     14269.7500     14216.2695         9.0600        83.6400        23.0000 
     14270.0000     14216.4502         6.7600        80.5600        32.1500 
     14270.2500     14216.6201         8.1400        76.8700         5.8300 
     14270.5000     14216.7998         9.5200        75.5900         3.5900 
     14270.7500     14216.9805         9.4000        74.6800        29.3400 
     14271.0000     14217.1602         9.2700        72.8900        56.2200 
     14271.2500     14217.3398         8.9100        74.5100        48.2400 
     14271.5000     14217.5098         8.5400        76.1400        38.8600 
     14271.7500     14217.6904        11.3000        74.7700         7.9100 
     14272.0000     14217.8701        14.0600        73.1600         9.9500 
     14272.2500     14218.0498        14.8500        75.0400        12.0000 
     14272.5000     14218.2197        15.6400        77.7200        25.7400 
     14272.7500     14218.4004        16.5300        80.4100        34.7400 
     14273.0000     14218.5801        17.4100        78.0800        48.2300 
     14273.2500     14218.7500        13.8200        80.1500       102.1800 
     14273.5000     14218.9297        10.2000        82.5600         5.8900 
     14273.7500     14219.1104         6.6100        80.3200        17.3200 
     14274.0000     14219.2803         3.0200        72.8900        28.7600 
     14274.2500     14219.4600         5.4800        80.0700        27.7500 
     14274.5000     14219.6396         7.9400        83.7800        39.1300 
     14274.7500     14219.8096         8.2200        80.5500        75.7500 
     14275.0000     14219.9902         8.5100        81.2200        11.2900 
     14275.2500     14220.1602        14.2800        81.8900        53.6400 
     14275.5000     14220.3398        20.0600        80.3400        44.0300 
     14275.7500     14220.5098        14.7100        78.2400        99.3600 
     14276.0000     14220.6904         9.3700        76.1400         0.0500 
     14276.2500     14220.8604        11.6700        76.6500        16.0000 
     14276.5000     14221.0400        13.9800        74.8600        19.3200 
     14276.7500     14221.2100        13.8700        74.1000        10.3100 
     14277.0000     14221.3896        13.7700        74.2200         3.9400 
     14277.2500     14221.5596        13.4700        77.5700        11.3700 
     14277.5000     14221.7402        13.1800        77.1900         8.0400 
     14277.7500     14221.9102        10.3300        76.1100        28.7300 
     14278.0000     14222.0898         7.4900        73.4300        75.7700 
     14278.2500     14222.2598         7.6200        79.8800       115.1900 
     14278.5000     14222.4297         7.7400        79.8800       145.0000 
     14278.7500     14222.6104         7.8700        79.3400       174.8100 
     14279.0000     14222.7803         8.0000        80.1400       204.6200 
     14279.2500     14222.9502         9.7500        80.8100       151.2800 
     14279.5000     14223.1299        11.5000        81.4900        13.9800 
     14279.7500     14223.2998        13.2500        83.2800       102.4700 
     14280.0000     14223.4697        15.0000        87.5900        15.7700 
     14280.2500     14223.6504        15.3700        88.9400        68.0000 
     14280.5000     14223.8203        15.7400        87.9400        90.1000 
     14280.7500     14223.9902        16.1100        88.8300        35.5000 
     14281.0000     14224.1602        16.4800        89.3400        29.2000 
     14281.2500     14224.3301        13.6800        86.1200       109.1400 
     14281.5000     14224.5000        10.8700        86.0400       183.7200 
     14281.7500     14224.6797        17.1000        88.2600       124.5300 
     14282.0000     14224.8496        23.3600        88.8000        64.9700 
     14282.2500     14225.0195        21.6800        89.4200         5.7800 
     14282.5000     14225.1904        20.0000        84.7100        31.5700 
     14282.7500     14225.3604        16.8300        91.8900       126.8000 
     14283.0000     14225.5303        13.6700       100.8600        77.7300 
     14283.2500     14225.7002        12.5100       126.8000        42.1800 
     14283.5000     14225.8701        11.3400       154.2500        41.0700 
     14283.7500     14226.0400        15.9500       179.9900        92.0000 
