~Version Information Block
VERS .                 2.00:  CWLS LOG ASCII STANDARD - VERSION 2.00
WRAP .                   NO:  One line per depth step
~Well Information Block
#MNEM.UNIT        Data Type   Information
#---------- ----------------  -----------
STRT .F               14023:  START DEPTH
STOP .F               14654:  STOP DEPTH
STEP .F                0.25:  STEP
NULL .              -999.25:  NULL VALUE
COMP .            Whozit Co:  COMPANY
WELL .   Astn Chalk Example:  WELL
FLD  .             GIDDINGS:  FIELD
LOC  .           Fayette CO:  LOCATION
PROV .                   TX:  PROVINCE
SRVC .                  280:  SERVICE COMPANY
DATE .             5-MAY-32:  LOG DATE
API  .       xxxxxxxxxxxxxx:  API NUMBER
~Curve Information Block
#MNEM.UNIT         API CODE   Curve Description
#---------- ----------------  -----------------
DEPTH.F      00 000 000 000:  
MTTV .F      00 000 000 000:  MWD Tool Measurement TVD
ROP  .FT/H   00 000 000 000:  Rate of Penetration (MWD Depth Ave.)
SGR  .GAPI   00 000 000 000:  CWR Calibrated Gamma
VIBC .CPS    00 000 000 000:  Vibration Count
~Parameter Information Block
~Other Information Block
~A        DEPTH           MTTV            ROP            SGR           VIBC 
     14024.0000     14013.5996        14.6500        61.0600         5.0800 
     14024.2500     14013.8301        15.5500        60.5500         6.1300 
     14024.5000     14014.0596        16.4500        59.6900         7.1700 
     14024.7500     14014.2900        15.7300        58.8400        10.3500 
     14025.0000     14014.5195        15.0000        57.9800        32.7000 
     14025.2500     14014.7500        13.9600        57.4900        60.1700 
     14025.5000     14014.9902        12.9200        58.4500        87.6400 
     14025.7500     14015.2197        16.3500        59.4100        86.0300 
     14026.0000     14015.4502        19.8100        59.9900        32.1600 
     14026.2500     14015.6797        15.4700        59.9900         0.2500 
     14026.5000     14015.9102        11.1300        59.9900        13.2700 
     14026.7500     14016.1396        10.8800        59.9900        32.4300 
     14027.0000     14016.3701        10.6300        59.9900        51.5900 
     14027.2500     14016.5996         6.9100        59.9900        70.7500 
     14027.5000     14016.8301         3.1900        59.9900        89.9200 
     14027.7500     14017.0703        14.0500        59.9900         1.2500 
     14028.0000     14017.2998        24.9100        60.0800         6.2400 
     14028.2500     14017.5303        23.6400        60.1900         8.7800 
     14028.5000     14017.7598        22.3600        60.3000         7.3200 
     14028.7500     14017.9902        22.1300        60.4100         3.7700 
     14029.0000     14018.2197        21.9000        60.5300        32.3900 
     14029.2500     14018.4502        20.9700        60.7200        79.3100 
     14029.5000     14018.6797        20.0400        60.9100        66.8900 
     14029.7500     14018.9102        19.4000        60.8300        54.4700 
     14030.0000     14019.1396        18.7500        59.6800        45.5700 
     14030.2500     14019.3701        18.0300        58.5200        37.4900 
     14030.5000     14019.5996        17.3200        58.1800        29.4600 
     14030.7500     14019.8301        19.4300        59.0400        21.4300 
     14031.0000     14020.0596        21.5300        59.8900        13.4000 
     14031.2500     14020.2900        19.7300        60.7500         5.3700 
     14031.5000     14020.5195        17.9300        61.6000        24.5100 
     14031.7500     14020.7500        18.9700        61.8400        45.9100 
     14032.0000     14020.9805        20.0000        62.0900        67.3200 
     14032.2500     14021.2100        17.6900        62.3300        45.1500 
     14032.5000     14021.4404        15.3800        62.5800         4.0800 
     14032.7500     14021.6699        20.0200        62.2100         2.6900 
     14033.0000     14021.9004        24.6600        61.4500         1.3100 
     14033.2500     14022.1299        23.0500        60.6800         1.4000 
     14033.5000     14022.3604        21.4300        60.7800         6.2400 
     14033.7500     14022.5898        17.9800        61.0900        11.0700 
     14034.0000     14022.8203        14.5200        61.4100        15.9100 
     14034.2500     14023.0498        18.3700        61.9400        17.5200 
     14034.5000     14023.2803        22.2200        62.4700        18.6900 
     14034.7500     14023.5098        18.9900        63.0100        19.8600 
     14035.0000     14023.7402        15.7900        63.5400        21.0300 
     14035.2500     14023.9697        16.5500        63.2000        22.1900 
     14035.5000     14024.2002        17.3100        62.2900        45.1800 
     14035.7500     14024.4297        18.4400        61.3700         7.0100 
     14036.0000     14024.6602        19.5700        60.4600         4.3700 
     14036.2500     14024.8896        19.0600        59.5400         2.0600 
     14036.5000     14025.1201        18.5600        61.5400         0.2600 
     14036.7500     14025.3496        16.9100        64.2600         0.4400 
     14037.0000     14025.5801        15.2500        66.9800        10.9100 
     14037.2500     14025.8096        16.9300        66.0200        20.4800 
     14037.5000     14026.0303        18.6200        65.0600        30.0400 
     14037.7500     14026.2598        20.3000        64.1900        39.6100 
     14038.0000     14026.4902        21.9800        63.7000        49.1700 
     14038.2500     14026.7197        23.6700        63.2100        58.7400 
     14038.5000     14026.9502        25.3500        62.7300        68.3000 
     14038.7500     14027.1797        19.8400        62.2400        15.7800 
     14039.0000     14027.4102        14.2900        61.5100         1.2000 
     14039.2500     14027.6396        14.7100        60.7300         2.7000 
     14039.5000     14027.8701        15.1300        59.9400         4.1900 
     14039.7500     14028.0996        18.1500        59.1600       262.0700 
     14040.0000     14028.3301        21.1800        58.3800       139.8600 
     14040.2500     14028.5498        13.6800        58.5700        17.6500 
     14040.5000     14028.7803         6.1900        58.7600        15.2500 
     14040.7500     14029.0098         9.5500        58.9900        22.8300 
     14041.0000     14029.2402        12.9100        59.3700        30.4200 
     14041.2500     14029.4697        11.5800        59.7600        38.0000 
     14041.5000     14029.7002        10.2500        60.0900        29.5900 
     14041.7500     14029.9199        12.8500        60.3600        27.0200 
     14042.0000     14030.1504        15.4600        60.6300        98.1800 
     14042.2500     14030.3799        13.3600        60.9000         7.5500 
     14042.5000     14030.6104        11.2600        60.8500         6.0500 
     14042.7500     14030.8398        13.1000        60.3100         4.5600 
     14043.0000     14031.0703        14.9500        59.7700        10.3900 
     14043.2500     14031.2900        17.1700        59.2400        16.5100 
     14043.5000     14031.5195        19.4100        59.1800        13.3300 
     14043.7500     14031.7500        18.0700        59.8500         4.8900 
     14044.0000     14031.9805        16.7400        61.2800         1.1200 
     14044.2500     14032.2100        15.4000        62.8900         2.4200 
     14044.5000     14032.4404        14.0700        62.6700         2.4500 
     14044.7500     14032.6602        12.7300        62.0000         7.0000 
     14045.0000     14032.8896        11.4000        61.3300        60.3700 
     14045.2500     14033.1201        13.8500        60.6600       113.7400 
     14045.5000     14033.3496        16.2900        60.3300       134.1600 
     14045.7500     14033.5703        15.8600        60.0900        84.7200 
     14046.0000     14033.7998        15.4300        59.8400        35.2900 
     14046.2500     14034.0303        15.0100        59.6000         4.6500 
     14046.5000     14034.2598        14.5800        59.2400         2.5000 
     14046.7500     14034.4805        14.1500        58.7000         3.6100 
     14047.0000     14034.7100        13.7200        58.3800         6.0800 
     14047.2500     14034.9404        13.5600        58.3800         7.9400 
     14047.5000     14035.1699        13.4000        58.3800        12.3100 
     14047.7500     14035.3896        13.2400        58.1500        40.3300 
     14048.0000     14035.6201        13.0800        57.9300        68.1700 
     14048.2500     14035.8496        12.9200        57.7000        96.0100 
     14048.5000     14036.0801        12.7600        57.4800       123.8500 
     14048.7500     14036.2998        13.0100        57.2300       151.6900 
     14049.0000     14036.5303        13.2500        56.9000         1.7000 
     14049.2500     14036.7598        12.7400        56.5600         1.2900 
     14049.5000     14036.9805        12.2300        56.2300         7.4100 
     14049.7500     14037.2100        11.7200        55.8900        30.1300 
