~Version Information Block
VERS .                 2.00:  CWLS LOG ASCII STANDARD - VERSION 2.00
WRAP .                   NO:  One line per depth step
~Well Information Block
#MNEM.UNIT        Data Type   Information
#---------- ----------------  -----------
STRT .F               14023:  START DEPTH
STOP .F               14654:  STOP DEPTH
STEP .F                0.25:  STEP
NULL .              -999.25:  NULL VALUE
COMP .            Whozit Co:  COMPANY
WELL .   Astn Chalk Example:  WELL
FLD  .             GIDDINGS:  FIELD
LOC  .           Fayette CO:  LOCATION
PROV .                   TX:  PROVINCE
SRVC .                  280:  SERVICE COMPANY
DATE .             5-MAY-32:  LOG DATE
API  .       xxxxxxxxxxxxxx:  API NUMBER
~Curve Information Block
#MNEM.UNIT         API CODE   Curve Description
#---------- ----------------  -----------------
DEPTH.F      00 000 000 000:  
MTTV .F      00 000 000 000:  MWD Tool Measurement TVD
ROP  .FT/H   00 000 000 000:  Rate of Penetration (MWD Depth Ave.)
SGR  .GAPI   00 000 000 000:  CWR Calibrated Gamma
VIBC .CPS    00 000 000 000:  Vibration Count
~Parameter Information Block
~Other Information Block
~A        DEPTH           MTTV            ROP            SGR           VIBC 
# ...
     14154.0000     14127.2305         9.9900        59.4500         1.1900 
     14154.2500     14127.4404         8.8700        58.4300         0.3500 
     14154.5000     14127.6396         7.7500        58.7300         0.1700 
     14154.7500     14127.8496         8.6000        59.0200         0.0000 
     14155.0000     14128.0498         9.4500        59.3200         0.0000 
     14155.2500     14128.2598        10.7000        59.7200         0.0000 
     14155.5000     14128.4600        11.9500        60.1100         0.0000 
     14155.7500     14128.6699        10.0900        60.5100         0.0000 
     14156.0000     14128.8799         8.2200        60.9100         2.3100 
     14156.2500     14129.0801        10.0200        61.3100         5.3600 
     14156.5000     14129.2900        11.8100        61.7000         2.6300 
     14156.7500     14129.4902        11.5500        62.1000         0.0700 
     14157.0000     14129.7002        11.2800        62.4200         1.8600 
     14157.2500     14129.9004        10.0700        62.6200         0.3000 
     14157.5000     14130.1104         8.8600        62.8200         0.0000 
     14157.7500     14130.3096        11.5300        63.0200         0.0000 
     14158.0000     14130.5195        14.2000        63.3800         0.0000 
     14158.2500     14130.7197        11.6000        63.7800         1.6400 
     14158.5000     14130.9297         9.0100        64.1800        11.8400 
     14158.7500     14131.1299         8.9900        64.5800         0.0000 
     14159.0000     14131.3398         8.9700        64.5600         0.0000 
     14159.2500     14131.5400         7.2900        63.8900         0.0000 
     14159.5000     14131.7500         5.6100        63.2100         0.0000 
     14159.7500     14131.9502        10.6000        62.5400         0.0000 
     14160.0000     14132.1602        15.5900        62.2400         0.0000 
     14160.2500     14132.3604        13.6800        62.5100        23.9400 
     14160.5000     14132.5703        11.7600        62.6000       125.5500 
     14160.7500     14132.7695         9.1800        62.4100       226.5000 
     14161.0000     14132.9805         6.6000        62.2100       137.9400 
     14161.2500     14133.1797         5.0600        61.9600        49.3900 
     14161.5000     14133.3896         3.5200        61.6600         1.0600 
     14161.7500     14133.5898         6.9700        61.3600         0.7400 
     14162.0000     14133.7900        10.4200        61.0600         0.1800 
     14162.2500     14134.0000        11.7900        60.8200        26.6500 
     14162.5000     14134.2002        13.1500        60.5700        43.8700 
     14162.7500     14134.4102        11.3000        60.3300        43.6300 
     14163.0000     14134.6104         9.4400        60.0800        43.3900 
     14163.2500     14134.8096        10.2300        59.9900        43.1500 
     14163.5000     14135.0195        11.0200        60.7900        42.9200 
     14163.7500     14135.2197        11.6300        62.8100        42.6800 
     14164.0000     14135.4297        12.2300        62.9400        42.4400 
     14164.2500     14135.6299        11.4100        62.7400        41.3200 
     14164.5000     14135.8398        10.5900        61.0600        36.6600 
     14164.7500     14136.0400        10.0300        64.6300        32.0000 
     14165.0000     14136.2500         9.4700        64.0800        27.3000 
     14165.2500     14136.4502         9.1000        64.8800        22.6400 
     14165.5000     14136.6504         8.7400        64.8200        17.9800 
     14165.7500     14136.8604         7.9500        63.4800        13.3100 
     14166.0000     14137.0596         7.1500        62.1300         8.6500 
     14166.2500     14137.2695        10.7000        61.0600         3.9900 
     14166.5000     14137.4697        14.2400        60.5300         0.3000 
     14166.7500     14137.6699        13.4400        60.5300         0.5500 
     14167.0000     14137.8799        12.6500        61.6000         0.7900 
     14167.2500     14138.0801        11.8600        62.9500         1.0400 
     14167.5000     14138.2803        11.0600        63.7500         1.2900 
     14167.7500     14138.4902        11.2100        63.6900         1.5400 
     14168.0000     14138.6904        11.3500        60.6500         1.7900 
     14168.2500     14138.8896         8.8300        59.2900         2.0300 
     14168.5000     14139.0996         6.3000        59.0200         2.2800 
     14168.7500     14139.2998        10.3400        59.5100        25.8500 
     14169.0000     14139.5000        14.3800        60.5200        20.6900 
     14169.2500     14139.7100        19.2000        61.5400        15.4900 
     14169.5000     14139.9102        23.9900        62.1000        10.3300 
     14169.7500     14140.1104        17.5600        62.0200         5.1600 
     14170.0000     14140.3203        11.1300        61.9200         0.0000 
     14170.2500     14140.5195        11.8600        61.8200         0.2000 
     14170.5000     14140.7197        12.5800        61.7200         0.4100 
     14170.7500     14140.9297         8.8000        61.6200         0.6100 
     14171.0000     14141.1299         5.0100        60.7000         2.1600 
     14171.2500     14141.3301        10.8500        59.5900         6.5400 
     14171.5000     14141.5400        16.6800        59.0000        10.9200 
     14171.7500     14141.7402        10.7100        59.2100        15.3100 
     14172.0000     14141.9404         4.7300        59.4200        19.6900 
     14172.2500     14142.1396         8.4200        59.6200        23.6100 
     14172.5000     14142.3496        12.1100        59.7400        26.7200 
     14172.7500     14142.5498         8.3300        59.8600        29.8200 
     14173.0000     14142.7500         4.5500        59.9900        32.9200 
     14173.2500     14142.9502         4.0500        56.6100        36.0300 
     14173.5000     14143.1602         3.5400        58.5700        39.1500 
     14173.7500     14143.3604         3.0400        60.2100        42.1400 
     14174.0000     14143.5596         2.5400        60.6800        44.9700 
     14174.2500     14143.7695         7.0400        61.0100        47.8000 
     14174.5000     14143.9697        11.5300        60.7700        46.3200 
     14174.7500     14144.1699        18.4800        60.5300        38.3300 
     14175.0000     14144.3701        25.4300        60.2800        30.3400 
     14175.2500     14144.5801        22.3600        60.0400        22.3400 
     14175.5000     14144.7803        19.3000        59.7200        16.4900 
     14175.7500     14144.9805        11.1200        59.3800        12.6200 
     14176.0000     14145.1797         2.9400        59.0500         8.7400 
     14176.2500     14145.3799         3.0500        58.7100       166.5000 
     14176.5000     14145.5898         3.1600        58.3800       400.5000 
     14176.7500     14145.7900         5.1500        58.0400       318.3600 
     14177.0000     14145.9902         7.1300        57.7800       137.9300 
     14177.2500     14146.1904         6.0500        57.6300        39.8100 
     14177.5000     14146.4004         4.9600        57.4800        30.5800 
     14177.7500     14146.5996         4.4400        57.3300        21.3500 
     14178.0000     14146.7998         3.9100        57.3000        12.0600 
     14178.2500     14147.0000         3.5000        57.3000         8.2800 
     14178.5000     14147.2002         3.1000        56.3300         5.2000 
     14178.7500     14147.4004         3.3400        55.1200         2.1200 
     14179.0000     14147.6104         3.5800        53.9100         0.6700 
     14179.2500     14147.8096         4.3200        52.7000         1.2300 
     14179.5000     14148.0098         5.0500        54.1700         1.1900 
     14179.7500     14148.2100         4.0100        56.2900         0.7600 
