~Version Information Block
VERS .                 2.00:  CWLS LOG ASCII STANDARD - VERSION 2.00
WRAP .                   NO:  One line per depth step
~Well Information Block
#MNEM.UNIT        Data Type   Information
#---------- ----------------  -----------
STRT .F               14023:  START DEPTH
STOP .F               14654:  STOP DEPTH
STEP .F                0.25:  STEP
NULL .              -999.25:  NULL VALUE
COMP .            Whozit Co:  COMPANY
WELL .   Astn Chalk Example:  WELL
FLD  .             GIDDINGS:  FIELD
LOC  .           Fayette CO:  LOCATION
PROV .                   TX:  PROVINCE
SRVC .                  280:  SERVICE COMPANY
DATE .             5-MAY-32:  LOG DATE
API  .       xxxxxxxxxxxxxx:  API NUMBER
~Curve Information Block
#MNEM.UNIT         API CODE   Curve Description
#---------- ----------------  -----------------
DEPTH.F      00 000 000 000:  
MTTV .F      00 000 000 000:  MWD Tool Measurement TVD
ROP  .FT/H   00 000 000 000:  Rate of Penetration (MWD Depth Ave.)
SGR  .GAPI   00 000 000 000:  CWR Calibrated Gamma
VIBC .CPS    00 000 000 000:  Vibration Count
~Parameter Information Block
~Other Information Block
~A        DEPTH           MTTV            ROP            SGR           VIBC 
# ...
     14102.0000     14083.4297        21.2300        69.1300       343.5300 
     14102.2500     14083.6504        20.3800        67.7800        88.2900 
     14102.5000     14083.8604        19.5200        67.7800        25.7100 
     14102.7500     14084.0801        16.8200        68.3200        23.0400 
     14103.0000     14084.2900        14.1200        69.6600        22.1100 
     14103.2500     14084.5098        10.6500        71.0000        26.8000 
     14103.5000     14084.7197         7.1800        71.4200        31.4900 
     14103.7500     14084.9404        11.7100        70.4500        36.1700 
     14104.0000     14085.1602        16.2400        69.4700        31.0500 
     14104.2500     14085.3701        13.4600        68.4900        40.9700 
     14104.5000     14085.5898        10.6900        67.5100       296.6400 
     14104.7500     14085.7998         8.9300        66.1700       349.4800 
     14105.0000     14086.0195         7.1700        64.8200       268.5300 
     14105.2500     14086.2305         8.6800        64.2500       187.5900 
     14105.5000     14086.4502        10.2000        63.6700       106.6400 
     14105.7500     14086.6602         8.5700        63.5200        25.7000 
     14106.0000     14086.8799         6.9400        65.0900        15.0500 
     14106.2500     14087.0898        13.3400        66.6600        14.7300 
     14106.5000     14087.2998        19.7300        65.9000         7.8400 
     14106.7500     14087.5195        16.2000        63.7500        31.7500 
     14107.0000     14087.7305        12.6800        62.3200        33.7900 
     14107.2500     14087.9502        10.2300        62.7600        35.8400 
     14107.5000     14088.1602         7.7800        63.2100        38.2400 
     14107.7500     14088.3799         8.3100        62.1700        40.6300 
     14108.0000     14088.5898         8.8400        61.1200        43.0300 
     14108.2500     14088.8096        16.3100        60.0800        45.4200 
     14108.5000     14089.0195        23.8300        59.0200        29.8700 
     14108.7500     14089.2402        16.5700        57.9400        31.2900 
     14109.0000     14089.4502         9.3000        56.7600        73.4800 
     14109.2500     14089.6699         8.4900        56.0200       115.6600 
     14109.5000     14089.8799         7.6900        57.7100       157.8500 
     14109.7500     14090.0898         8.6300        58.9800       200.0300 
     14110.0000     14090.3096         9.5600        59.9900       242.2200 
     14110.2500     14090.5195        12.6500        63.4800       284.4100 
     14110.5000     14090.7402        15.7400        66.9800       326.5900 
     14110.7500     14090.9502        11.7200        69.6700       188.9700 
     14111.0000     14091.1602         7.7000        72.3600        55.3200 
     14111.2500     14091.3799         6.7100        71.9900        57.3800 
     14111.5000     14091.5898         5.7200        69.6000        59.4400 
     14111.7500     14091.8096         5.3800        67.2100        61.5000 
     14112.0000     14092.0195         5.0300        64.8200        58.8100 
     14112.2500     14092.2305         7.5500        64.5300        56.1300 
     14112.5000     14092.4502        10.0600        64.2300        53.4400 
     14112.7500     14092.6602         9.0000        63.9300        50.7400 
     14113.0000     14092.8799         7.9500        63.0300        48.0500 
     14113.2500     14093.0898        12.5100        61.2400        45.3600 
     14113.5000     14093.2998        17.0600        59.4500        13.4200 
     14113.7500     14093.5195        14.4400        60.3500        31.5700 
     14114.0000     14093.7305        11.8300        61.2400        48.5100 
     14114.2500     14093.9404        11.6900        61.6800        63.6400 
     14114.5000     14094.1602        11.5500        61.8200        69.1100 
     14114.7500     14094.3701        10.4700        61.9500        64.1200 
     14115.0000     14094.5801         9.3800        62.0800        59.1400 
     14115.2500     14094.7998        13.3200        62.4100        54.1600 
     14115.5000     14095.0098        17.2600        62.8500        49.1800 
     14115.7500     14095.2197        16.4400        63.3000        44.2000 
     14116.0000     14095.4404        15.6300        63.7500        39.2200 
     14116.2500     14095.6504        13.9000        61.0700        34.2400 
     14116.5000     14095.8604        12.1600        59.7200        26.8100 
     14116.7500     14096.0703        12.7900        60.3900        25.6400 
     14117.0000     14096.2900        13.4200        61.5900        32.1000 
     14117.2500     14096.5000        10.2500        62.9400        38.6100 
     14117.5000     14096.7100         7.1000        64.2900         4.0400 
     14117.7500     14096.9199         8.1000        66.7800        18.6000 
     14118.0000     14097.1396         9.0900        69.2800        33.1500 
     14118.2500     14097.3496         9.5200        70.4700        37.9500 
     14118.5000     14097.5596         9.9500        66.4400        38.9300 
     14118.7500     14097.7695         7.2000        64.4300        39.9100 
     14119.0000     14097.9902         4.4500        63.2100        37.7300 
     14119.2500     14098.2002         8.2000        63.2100        30.7600 
     14119.5000     14098.4102        11.9500        63.2100        23.7900 
     14119.7500     14098.6201        11.8500        63.0100        21.2200 
     14120.0000     14098.8398        11.7500        62.6700        19.0200 
     14120.2500     14099.0498        12.2900        62.3400        16.8200 
     14120.5000     14099.2598        12.8300        62.0000        19.4500 
     14120.7500     14099.4697        12.8200        61.6700        29.4000 
     14121.0000     14099.6797        12.8200        62.9400        34.5400 
     14121.2500     14099.8896         9.5000        64.4800        14.5400 
     14121.5000     14100.1104         6.1600        65.4700         3.7000 
     14121.7500     14100.3203         9.0600        66.4600         4.7100 
     14122.0000     14100.5303        11.9500        67.4400         5.7200 
     14122.2500     14100.7402        11.2300        68.4300         6.7300 
     14122.5000     14100.9600        10.5100        69.4100         7.2000 
     14122.7500     14101.1699        12.5900        69.6700         7.1000 
     14123.0000     14101.3799        14.6800        66.9800         7.0000 
     14123.2500     14101.5898        10.8900        64.2200         6.9000 
     14123.5000     14101.7998         7.1000        61.1900         6.8000 
     14123.7500     14102.0098         8.0000        59.7600         7.7500 
     14124.0000     14102.2305         8.9000        59.3700         2.6000 
     14124.2500     14102.4404         7.1300        58.9900        63.4500 
     14124.5000     14102.6504         5.3700        60.2600       147.0500 
     14124.7500     14102.8604         5.4900        61.9300       111.9800 
     14125.0000     14103.0703         5.6100        63.6100        76.9100 
     14125.2500     14103.2803         7.5000        63.6500        41.8400 
     14125.5000     14103.4902         9.3900        62.5700        17.4700 
     14125.7500     14103.7002        11.2700        61.3300        20.3500 
     14126.0000     14103.9102        13.1400        59.9800        17.0800 
     14126.2500     14104.1299        10.7600        59.6500        47.1100 
     14126.5000     14104.3398         8.3800        59.9900        78.6600 
     14126.7500     14104.5498         7.3100        60.3200        69.1100 
     14127.0000     14104.7598         6.2400        59.5900        39.5300 
     14127.2500     14104.9697         8.5700        57.2400        50.0000 
     14127.5000     14105.1797        10.9100        54.8900        60.4700 
     14127.7500     14105.3896        10.5500        53.2200        80.5200 
