~Version Information Block
VERS .                 2.00:  CWLS LOG ASCII STANDARD - VERSION 2.00
WRAP .                   NO:  One line per depth step
~Well Information Block
#MNEM.UNIT        Data Type   Information
#---------- ----------------  -----------
STRT .F               14023:  START DEPTH
STOP .F               14654:  STOP DEPTH
STEP .F                0.25:  STEP
NULL .              -999.25:  NULL VALUE
COMP .            Whozit Co:  COMPANY
WELL .   Astn Chalk Example:  WELL
FLD  .             GIDDINGS:  FIELD
LOC  .           Fayette CO:  LOCATION
PROV .                   TX:  PROVINCE
SRVC .                  280:  SERVICE COMPANY
DATE .             5-MAY-32:  LOG DATE
API  .       xxxxxxxxxxxxxx:  API NUMBER
~Curve Information Block
#MNEM.UNIT         API CODE   Curve Description
#---------- ----------------  -----------------
DEPTH.F      00 000 000 000:  
MTTV .F      00 000 000 000:  MWD Tool Measurement TVD
ROP  .FT/H   00 000 000 000:  Rate of Penetration (MWD Depth Ave.)
SGR  .GAPI   00 000 000 000:  CWR Calibrated Gamma
VIBC .CPS    00 000 000 000:  Vibration Count
~Parameter Information Block
~Other Information Block
~A        DEPTH           MTTV            ROP            SGR           VIBC 
# ...
     14232.0000     14188.6904         8.5800        86.5000        30.7100 
     14232.2500     14188.8799         8.9900        87.0600        97.4300 
     14232.5000     14189.0703         9.4100        87.2700        62.0000 
     14232.7500     14189.2500         6.7200        86.9300        44.1100 
     14233.0000     14189.4404         4.0300        86.5900        14.1200 
     14233.2500     14189.6299         7.3800        86.5600        42.2500 
     14233.5000     14189.8096        10.7200        87.7600        36.2500 
     14233.7500     14190.0000        11.2000        88.9500         0.7500 
     14234.0000     14190.1797        11.6900        90.1400        80.5000 
     14234.2500     14190.3701        16.2200        89.8200       100.9300 
     14234.5000     14190.5596        20.7300        88.4700        82.7700 
     14234.7500     14190.7402        21.2300        87.1300        64.6000 
     14235.0000     14190.9297        21.7200        85.7900        46.4300 
     14235.2500     14191.1104        14.4300        84.4400        42.4400 
     14235.5000     14191.2998         7.1300        82.5600        53.7500 
     14235.7500     14191.4805        11.2300        80.5400        65.0700 
     14236.0000     14191.6699        15.3300        78.5300       102.5300 
     14236.2500     14191.8496        14.1300        79.5100       148.1300 
     14236.5000     14192.0400        12.9400        82.4600       162.5900 
     14236.7500     14192.2197        12.0000        84.2400       159.6100 
     14237.0000     14192.4102        11.0600        85.2500        21.1400 
     14237.2500     14192.5898        12.2200        86.2600        34.0400 
     14237.5000     14192.7803        13.3800        86.7000        14.9200 
     14237.7500     14192.9600        12.5400        86.2800         4.6700 
     14238.0000     14193.1504        11.7000        85.8700         5.6300 
     14238.2500     14193.3301        13.0300        85.4600         6.5800 
     14238.5000     14193.5195        14.3700        85.0400         6.2500 
     14238.7500     14193.7100        12.0600        84.6500         4.8900 
     14239.0000     14193.8896         9.7600        84.3400         3.6100 
     14239.2500     14194.0801         8.1000        84.0300         2.7300 
     14239.5000     14194.2598         6.4500        83.7200         1.8600 
     14239.7500     14194.4502         6.8000        83.4100        35.7600 
     14240.0000     14194.6299         7.1600        83.1000         1.4800 
     14240.2500     14194.8203         8.5500        84.3100         1.3700 
     14240.5000     14195.0000         9.9400        85.5200         1.2600 
     14240.7500     14195.1797         9.6000        86.7300        13.1900 
     14241.0000     14195.3701         9.2500        87.9400        15.5000 
     14241.2500     14195.5498         9.2300        84.5800         9.0900 
     14241.5000     14195.7402         9.2000        81.2200        23.5900 
     14241.7500     14195.9199         8.7400        77.8600        24.9600 
     14242.0000     14196.0996         8.2800        74.5000        45.6000 
     14242.2500     14196.2900         8.5800        71.7600        19.9900 
     14242.5000     14196.4697         8.8800        71.4700        18.3400 
     14242.7500     14196.6602        11.5300        71.1800        16.7000 
     14243.0000     14196.8398        14.2000        70.8900        15.3100 
     14243.2500     14197.0303        11.3500        70.6000        15.7800 
     14243.5000     14197.2100         8.5000        70.3100        16.2400 
     14243.7500     14197.3896        10.6200        69.9300        16.7100 
     14244.0000     14197.5801        12.7400        69.4800        10.0000 
     14244.2500     14197.7598        12.1400        69.0300        14.0800 
     14244.5000     14197.9404        11.5300        68.5900         5.2100 
     14244.7500     14198.1299         9.9500        68.1400         4.0600 
     14245.0000     14198.3096         8.3700        65.9000         2.5100 
     14245.2500     14198.4902         9.0800        63.2100        12.9000 
     14245.5000     14198.6797         9.8000        60.5200        14.4300 
     14245.7500     14198.8604         9.0800        59.8500        50.2500 
     14246.0000     14199.0400         8.3700        60.5300        89.0000 
     14246.2500     14199.2305         8.2600        61.2000        18.3700 
     14246.5000     14199.4102         8.1400        61.8700        78.6800 
     14246.7500     14199.5898         7.5500        62.5400        79.9000 
     14247.0000     14199.7803         6.9600        62.1400        74.2400 
     14247.2500     14199.9600         7.7500        61.4700       166.0700 
     14247.5000     14200.1396         8.5400        60.7900        11.5500 
     14247.7500     14200.3301         9.0600        60.1200        27.2500 
     14248.0000     14200.5098         9.5900        59.4500        21.9700 
     14248.2500     14200.6904        10.1200        54.4700        16.6800 
     14248.5000     14200.8701        10.6400        54.0700         7.8300 
     14248.7500     14201.0596        10.3000        53.5400         4.2300 
     14249.0000     14201.2402         9.9700        53.5400         3.2700 
     14249.2500     14201.4199         9.6300        56.6300         9.0900 
     14249.5000     14201.5996         9.2900        56.2200         4.1600 
     14249.7500     14201.7900         8.4500        54.2100        70.4800 
     14250.0000     14201.9697         7.6200        56.2200        60.4400 
     14250.2500     14202.1504         6.7800        54.8800        44.7200 
     14250.5000     14202.3301         5.9400        55.4200        21.5700 
     14250.7500     14202.5195         5.1100        56.0900        12.3700 
     14251.0000     14202.7002         4.2700        57.3000        14.3200 
     14251.2500     14202.8799         3.4300        58.6400        16.2600 
     14251.5000     14203.0596         2.6000        61.0600        25.1700 
     14251.7500     14203.2500         1.7600        63.7600        24.2600 
     14252.0000     14203.4297         0.9200        64.8400        21.1100 
     14252.2500     14203.6104         0.8300        64.8300        16.7800 
     14252.5000     14203.7900         0.7300        64.2900        18.3800 
     14252.7500     14203.9805         0.9800        65.9700        19.9900 
     14253.0000     14204.1602         1.2200        67.6500        10.8900 
     14253.2500     14204.3398         1.1100        69.3300        42.7000 
     14253.5000     14204.5195         1.0000        71.0000        27.4300 
     14253.7500     14204.7002         0.9600        72.2700        12.1700 
     14254.0000     14204.8799         0.9300        71.8900        11.0400 
     14254.2500     14205.0703         1.0200        71.5100        26.2700 
     14254.5000     14205.2500         1.1100        72.8800        41.5000 
     14254.7500     14205.4297         1.1600        76.9200        56.7200 
     14255.0000     14205.6104         1.2200        80.9600        19.9800 
     14255.2500     14205.7900         1.2000        82.0200        21.4800 
     14255.5000     14205.9697         1.1800        80.6900        19.9900 
     14255.7500     14206.1602         1.2800        80.7200        18.4900 
     14256.0000     14206.3398         1.3900        80.4200        23.7200 
     14256.2500     14206.5195         1.3500        82.8400       107.8100 
     14256.5000     14206.7002         1.3100        84.1800        24.1500 
     14256.7500     14206.8799         1.4100        86.8600        36.2800 
     14257.0000     14207.0703         1.5100        83.6400        45.1200 
     14257.2500     14207.2500         1.3800        88.0900        44.3300 
     14257.5000     14207.4297         1.2600        89.5500        43.5300 
     14257.7500     14207.6104         1.5500        85.7900        30.4000 
