~Version Information Block
VERS .                 2.00:  CWLS LOG ASCII STANDARD - VERSION 2.00
WRAP .                   NO:  One line per depth step
~Well Information Block
#MNEM.UNIT        Data Type   Information
#---------- ----------------  -----------
STRT .F               14023:  START DEPTH
STOP .F               14654:  STOP DEPTH
STEP .F                0.25:  STEP
NULL .              -999.25:  NULL VALUE
COMP .            Whozit Co:  COMPANY
WELL .   Astn Chalk Example:  WELL
FLD  .             GIDDINGS:  FIELD
LOC  .           Fayette CO:  LOCATION
PROV .                   TX:  PROVINCE
SRVC .                  280:  SERVICE COMPANY
DATE .             5-MAY-32:  LOG DATE
API  .       xxxxxxxxxxxxxx:  API NUMBER
~Curve Information Block
#MNEM.UNIT         API CODE   Curve Description
#---------- ----------------  -----------------
DEPTH.F      00 000 000 000:  
MTTV .F      00 000 000 000:  MWD Tool Measurement TVD
ROP  .FT/H   00 000 000 000:  Rate of Penetration (MWD Depth Ave.)
SGR  .GAPI   00 000 000 000:  CWR Calibrated Gamma
VIBC .CPS    00 000 000 000:  Vibration Count
~Parameter Information Block
~Other Information Block
~A        DEPTH           MTTV            ROP            SGR           VIBC 
# ...
     14388.0000     14273.9902        14.4000        33.9200        81.4100 
     14388.2500     14274.0400        12.4800        33.3800       108.2600 
     14388.5000     14274.0996        10.5700        33.1100       133.4700 
     14388.7500     14274.1504        14.0000        33.1100       158.6700 
     14389.0000     14274.2100        17.4300        36.3400       126.7200 
     14389.2500     14274.2598        14.6600        35.1200        96.7900 
     14389.5000     14274.3096        11.8900        37.9500        88.9800 
     14389.7500     14274.3701        14.1000        40.3700       105.0600 
     14390.0000     14274.4199        16.3200        46.5500       129.1400 
     14390.2500     14274.4697        12.5900        41.8500       155.2200 
     14390.5000     14274.5303         8.8300        42.2500       145.7800 
     14390.7500     14274.5801         9.4700        41.4500       126.0300 
     14391.0000     14274.6299        10.1000        40.6300       144.4600 
     14391.2500     14274.6797        15.3400        39.2900       162.8900 
     14391.5000     14274.7305        20.5800        40.6400        42.7500 
     14391.7500     14274.7900        14.2600        41.1700        74.2000 
     14392.0000     14274.8398         7.9300        38.6700       105.6400 
     14392.2500     14274.8896        13.3900        38.0400       137.0900 
     14392.5000     14274.9404        18.8500        38.4900       141.5000 
     14392.7500     14274.9902        16.3200        38.3500       134.4300 
     14393.0000     14275.0400        13.7900        37.6800       139.9300 
     14393.2500     14275.0898        15.4000        37.0100       136.6500 
     14393.5000     14275.1396        17.0100        38.4900       120.0400 
     14393.7500     14275.2002        27.6800        37.1400       103.4400 
     14394.0000     14275.2500        38.3500        37.4100        77.3800 
     14394.2500     14275.2900        27.8100        36.8800        71.9600 
     14394.5000     14275.3398        17.2600        36.8800       123.3100 
     14394.7500     14275.3896        16.4700        37.9400       230.7500 
     14395.0000     14275.4404        15.6700        36.3400       191.8200 
     14395.2500     14275.4902        15.1000        35.5300       153.1400 
     14395.5000     14275.5400        14.5300        38.2200       196.3300 
     14395.7500     14275.5898        14.3200        37.9500       165.6700 
     14396.0000     14275.6396        14.1200        36.5200       173.3200 
     14396.2500     14275.6904        17.4300        36.6100       172.6500 
     14396.5000     14275.7402        20.7300        35.9100       132.5800 
     14396.7500     14275.7900        20.9800        35.3700        92.5000 
     14397.0000     14275.8301        21.2200        35.2600       160.8000 
     14397.2500     14275.8799        21.9400        35.2600       159.9500 
     14397.5000     14275.9297        22.6600        36.3400       159.1100 
     14397.7500     14275.9805        18.8300        33.6500       115.0200 
     14398.0000     14276.0195        15.0100        33.9200        84.0200 
     14398.2500     14276.0703        14.0600        34.7300       110.1000 
     14398.5000     14276.1201        13.1100        34.4600       146.1100 
     14398.7500     14276.1699        14.2400        33.3800       128.9700 
     14399.0000     14276.2100        15.3700        34.5400       104.4600 
     14399.2500     14276.2598        18.4300        35.4000        67.3900 
     14399.5000     14276.3096        21.4800        34.9900        41.3200 
     14399.7500     14276.3496        20.9500        34.1900        41.5100 
     14400.0000     14276.4004        20.4300        34.4600        41.6900 
     14400.2500     14276.4404        19.9000        36.3400        34.9200 
     14400.5000     14276.4902        19.3800        37.9500        37.2700 
     14400.7500     14276.5303        30.1800        40.3700        79.5200 
     14401.0000     14276.5801        40.9800        41.9800       121.7700 
     14401.2500     14276.6201        41.3700        43.6000       124.7600 
     14401.5000     14276.6699        41.7700        44.9400        72.2000 
     14401.7500     14276.7100        30.2100        46.4200        85.1200 
     14402.0000     14276.7598        18.6500        47.0900        65.2300 
     14402.2500     14276.7998        23.7000        50.2300        23.7100 
     14402.5000     14276.8496        28.7600        49.7700        13.1900 
     14402.7500     14276.8896        26.7800        48.4300        43.2300 
     14403.0000     14276.9297        24.7900        48.1600        74.4100 
     14403.2500     14276.9805        19.5300        47.2200        45.0800 
     14403.5000     14277.0195        14.2700        47.8900        36.7900 
     14403.7500     14277.0596        12.0700        48.1600        52.9800 
     14404.0000     14277.1104         9.8900        48.1600        61.8300 
     14404.2500     14277.1504        11.3500        49.0600        66.6500 
     14404.5000     14277.1904        12.8100        49.2400        71.4600 
     14404.7500     14277.2402        13.0300        51.6600        76.1600 
     14405.0000     14277.2803        13.2600        53.7200        80.2700 
     14405.2500     14277.3203        13.9300        51.7800        84.3900 
     14405.5000     14277.3604        14.6000        49.5900        88.5000 
     14405.7500     14277.4102        13.1300        50.2100       107.0700 
     14406.0000     14277.4502        11.6700        49.6700        99.7100 
     14406.2500     14277.4902        10.9200        49.1000        93.8800 
     14406.5000     14277.5400        10.1700        48.9700        99.0500 
     14406.7500     14277.5801        14.1800        49.4400       107.9700 
     14407.0000     14277.6201        18.1800        49.7800       117.0400 
     14407.2500     14277.6602        19.0600        51.7900       113.9500 
     14407.5000     14277.7100        19.9400        52.1900        92.4300 
     14407.7500     14277.7500        22.1200        49.0000        70.9100 
     14408.0000     14277.7900        24.3200        52.4600        52.0000 
     14408.2500     14277.8398        22.6700        53.0000        64.6100 
     14408.5000     14277.8799        21.0200        53.0000        77.2300 
     14408.7500     14277.9199        19.0900        51.6500        98.6000 
     14409.0000     14277.9600        17.1600        52.4600        95.0300 
     14409.2500     14278.0098        18.7800        52.3200       108.1000 
     14409.5000     14278.0498        20.4000        50.3100        91.0800 
     14409.7500     14278.0898        26.8200        54.6100        74.0600 
     14410.0000     14278.1299        33.2300        55.6900        57.0400 
     14410.2500     14278.1797        34.0700        54.2600       122.9100 
     14410.5000     14278.2197        34.9000        52.4600       107.6100 
     14410.7500     14278.2598        25.9200        55.4200        92.3100 
     14411.0000     14278.2998        16.9400        55.5100        77.0000 
     14411.2500     14278.3496        20.0300        55.8200        61.7000 
     14411.5000     14278.3896        23.1300        55.9700        79.6100 
     14411.7500     14278.4297        30.4200        54.4800        74.7900 
     14412.0000     14278.4697        37.7100        55.1500        69.9700 
     14412.2500     14278.5195        39.7300        55.4200        65.1200 
     14412.5000     14278.5596        41.7300        55.6900        49.4600 
     14412.7500     14278.5996        39.9100        52.5500        17.7900 
     14413.0000     14278.6396        38.0900        53.9000        40.6200 
     14413.2500     14278.6904        40.4800        53.0900        76.9600 
     14413.5000     14278.7305        42.8700        56.2200        89.0700 
     14413.7500     14278.7695        37.7400        57.1400        57.9200 
