~Version Information Block
VERS .                 2.00:  CWLS LOG ASCII STANDARD - VERSION 2.00
WRAP .                   NO:  One line per depth step
~Well Information Block
#MNEM.UNIT        Data Type   Information
#---------- ----------------  -----------
STRT .F               14023:  START DEPTH
STOP .F               14654:  STOP DEPTH
STEP .F                0.25:  STEP
NULL .              -999.25:  NULL VALUE
COMP .            Whozit Co:  COMPANY
WELL .   Astn Chalk Example:  WELL
FLD  .             GIDDINGS:  FIELD
LOC  .           Fayette CO:  LOCATION
PROV .                   TX:  PROVINCE
SRVC .                  280:  SERVICE COMPANY
DATE .             5-MAY-32:  LOG DATE
API  .       xxxxxxxxxxxxxx:  API NUMBER
~Curve Information Block
#MNEM.UNIT         API CODE   Curve Description
#---------- ----------------  -----------------
DEPTH.F      00 000 000 000:  
MTTV .F      00 000 000 000:  MWD Tool Measurement TVD
ROP  .FT/H   00 000 000 000:  Rate of Penetration (MWD Depth Ave.)
SGR  .GAPI   00 000 000 000:  CWR Calibrated Gamma
VIBC .CPS    00 000 000 000:  Vibration Count
~Parameter Information Block
~Other Information Block
~A        DEPTH           MTTV            ROP            SGR           VIBC 
# ...
     14622.0000      -999.2500        26.5100        86.8600       111.9900 
     14622.2500      -999.2500        24.6800        84.6200       102.7300 
     14622.5000      -999.2500        22.8500        82.6700       101.8500 
     14622.7500      -999.2500        23.7800        80.7900       102.5700 
     14623.0000      -999.2500        24.7000        83.6400       105.4000 
     14623.2500      -999.2500        37.6100        81.3100       111.4300 
     14623.5000      -999.2500        50.5200        80.4100       119.2600 
     14623.7500      -999.2500        32.8100        77.7200       148.6100 
     14624.0000      -999.2500        15.0900        80.1400       169.6500 
     14624.2500      -999.2500        11.2800        79.4700       163.9700 
     14624.5000      -999.2500         7.4800        78.8000       158.4200 
     14624.7500      -999.2500         3.7500        77.9900       156.4400 
     14625.0000      -999.2500         0.0000        77.9000       154.4500 
     14625.2500      -999.2500         8.8400        74.9900       149.5800 
     14625.5000      -999.2500        17.6800        74.5000       142.0400 
     14625.7500      -999.2500        11.5900        72.7100       131.9800 
     14626.0000      -999.2500         5.4900        70.2000       111.7400 
     14626.2500      -999.2500         8.4500        70.3300        91.5000 
     14626.5000      -999.2500        11.4100        70.4700        71.2600 
     14626.7500      -999.2500        13.6000        68.1800        51.0200 
     14627.0000      -999.2500        15.7800        67.7000        30.7800 
     14627.2500      -999.2500        17.3100        65.2300       126.4300 
     14627.5000      -999.2500        18.8300        63.2100       127.5800 
     14627.7500      -999.2500        20.4000        63.3400       128.7300 
     14628.0000      -999.2500        21.9700        64.6900       129.8700 
     14628.2500      -999.2500        20.4800        63.0100       131.0200 
     14628.5000      -999.2500        19.0000        63.7500       132.1600 
     14628.7500      -999.2500        22.3200        64.0200       133.3100 
     14629.0000      -999.2500        25.6300        67.5100       126.5600 
     14629.2500      -999.2500        19.1100        64.0000       107.7000 
     14629.5000      -999.2500        12.6400        61.7500        88.9700 
     14629.7500      -999.2500        25.6600        60.6000        99.7100 
     14630.0000      -999.2500        38.6700        59.4500       117.7500 
     14630.2500     14297.0996        30.3100        58.3000         8.0800 
     14630.5000     14297.0996        21.9600        57.1500         0.3800 
     14630.7500     14297.0996        18.6000        57.5700         0.0000 
     14631.0000     14297.0996        15.2500        51.3900         0.0000 
     14631.2500     14297.0996        16.5900        53.5400         0.0000 
     14631.5000     14297.0996        17.9200        55.6900         0.0000 
     14631.7500      -999.2500        18.5700        51.2500        14.7200 
     14632.0000      -999.2500        19.2200        50.6700        54.5900 
     14632.2500      -999.2500        16.8400        50.2200        75.0200 
     14632.5000      -999.2500        14.4600        49.7800        95.4500 
     14632.7500      -999.2500        12.0900        50.0400       115.8700 
     14633.0000      -999.2500         9.7100        51.5600       136.3000 
     14633.2500      -999.2500        19.7700        53.3300       122.1000 
     14633.5000      -999.2500        29.8300        55.0100       104.7600 
     14633.7500      -999.2500        28.2900        58.5000        88.3600 
     14634.0000      -999.2500        26.7500        56.4900        83.6300 
     14634.2500      -999.2500        37.5300        56.0900        78.9100 
     14634.5000      -999.2500        48.3100        56.7600        74.1900 
     14634.7500      -999.2500        40.3400        56.1500        75.5200 
     14635.0000      -999.2500        32.3800        55.5400        78.3400 
     14635.2500      -999.2500        23.8200        54.9300        81.1700 
     14635.5000      -999.2500        15.2500        54.3200        84.0000 
     14635.7500      -999.2500        16.5100        53.2700       112.5000 
     14636.0000      -999.2500        17.7800        54.6100       133.2200 
     14636.2500      -999.2500        21.1900        52.6000       153.9400 
     14636.5000      -999.2500        24.6100        54.8800       174.6600 
     14636.7500      -999.2500        23.1600        52.3200       168.0700 
     14637.0000      -999.2500        21.7100        53.5400       150.7500 
     14637.2500      -999.2500        23.6700        51.5200       133.4300 
     14637.5000      -999.2500        25.6300        48.7100       139.7800 
     14637.7500      -999.2500        27.3900        47.2300       177.5100 
     14638.0000      -999.2500        29.1600        46.5500       161.2800 
     14638.2500      -999.2500        23.2800        46.1700       145.1600 
     14638.5000      -999.2500        17.4100        45.7800       129.0300 
     14638.7500      -999.2500        19.9600        47.0900       112.9100 
     14639.0000      -999.2500        22.5100        46.5500        96.2200 
     14639.2500      -999.2500        22.8300        46.0100       102.0000 
     14639.5000      -999.2500        23.1600        43.3300       107.7700 
     14639.7500      -999.2500        27.2200        44.8000       113.5500 
     14640.0000      -999.2500        31.2800        43.0600       119.3200 
     14640.2500      -999.2500        23.7900        40.3600       117.4200 
     14640.5000      -999.2500        16.3000        41.7100       114.0600 
     14640.7500      -999.2500        16.3800        40.7700       110.6900 
     14641.0000      -999.2500        16.4500        38.4900       107.3300 
     14641.2500      -999.2500        21.4100        41.4500       111.9100 
     14641.5000      -999.2500        26.3700        34.7300       120.2400 
     14641.7500      -999.2500        17.9900        39.5600       126.8900 
     14642.0000      -999.2500         9.6100        40.1000       133.3000 
     14642.2500      -999.2500        15.0600        41.0400       139.7600 
     14642.5000      -999.2500        20.4700        38.4900       153.3600 
     14642.7500      -999.2500        18.8000        41.8900       167.9000 
     14643.0000      -999.2500        17.1200        40.1000       182.4300 
     14643.2500      -999.2500        14.6200        38.2200       196.9700 
     14643.5000     14297.1201        12.1200        41.1700        86.0000 
     14643.7500     14297.1201        16.4300        39.0200        82.8600 
     14644.0000     14297.1201        20.7400        42.2500        79.7200 
     14644.2500     14297.1201        18.6600        38.2200        76.5700 
     14644.5000     14297.1201        16.5800        38.1300        73.4300 
     14644.7500     14297.1201        31.9600        38.3500        70.2900 
     14645.0000     14297.1201        47.3300        39.1600        67.1400 
     14645.2500     14297.1201        28.5000        40.8400        64.0000 
     14645.5000      -999.2500         9.6600        38.4900        66.0100 
     14645.7500      -999.2500        19.2200        38.4000        71.4100 
     14646.0000      -999.2500        28.7800        32.5800        76.8100 
     14646.2500      -999.2500        20.6700        40.1600        86.4800 
     14646.5000      -999.2500        12.5600        40.1000        98.5500 
     14646.7500      -999.2500        44.6100        40.0500       110.6900 
     14647.0000      -999.2500        76.4600        39.7800       122.7500 
     14647.2500      -999.2500        49.9100        39.4600       134.8200 
     14647.5000      -999.2500        23.3600        38.9200        91.5600 
     14647.7500      -999.2500        23.2600        38.3500       100.7500 
