~V
VERS  .       2.0                       : 
WRAP  .       NO                        : 
~W
STRT  .ft     6500.0000                 : 
STOP  .ft     15497.5000                : 
STEP  .ft        0.5000                 : 
NULL  .       -999.0000                 : 
COMP  .       Oxy                       : 
WELL  .       University 20-26 #1H      : 
FLD   .       Bone Spring               : 
LOC   .       Wink                      : 
SRVC  .       Scientific Drilling       : 
DATE  .       01/05/2009                : 
CNTY  .       Winkler County            : 
STAT  .       Texas                     : 
CTRY  .       United States             : 
API   .       42-495-33311              : 
~C
MD    .ft                               : Measured Depth
Weight-on-Bit(surf,avg).kip                              : 
TopDrvTorque.kip-ft                           : 
TopDrvSpeed.rpm                              : 
Temperature.degF                             : 
StandpipePressure.psi                              : 
ROP(MWD).ft/hr                            : 
MudFlowIn.gal/min                           : 
MergedcurvefromECD,ECDofLogAnnulusPress,ECDofLogAnnulusPress(MWD).lb/gal                           : 
LogRMSVibrations.G                                : 
LogPipePress.psi                              : 
LogGammaRay.aapi                             : 
LogAnnulusPress.psi                              : 
HookLoad(MWD).lbf                              : 
Gas(avg).%                                : 
BlockPosition(MWD).ft                               : 
~P
~O
~A
# ...
14275.0000    8.0764 4959.2063   39.0881  170.0959 4160.1093   44.0245  278.0740 -999.0000    1.7358 -999.0000   84.0230 -999.0000  218.3839  652.9954  -38.4510 
14275.5000    8.3143 4972.9173   39.0928  170.1210 4144.9027   50.9561  278.0816 -999.0000    1.9029 -999.0000   93.3869 -999.0000  217.8672  654.9286  -38.9763 
14276.0000    9.1580 5026.6752   39.0994  170.1460 4142.6957   57.9468  278.2211 -999.0000    2.0102 -999.0000  100.9226 -999.0000  216.8640  657.7792  -39.5383 
14276.5000   10.3525 5034.5093   39.0978  170.1711 4150.7801   64.7933  278.4539 -999.0000    3.5506 -999.0000  123.2949 -999.0000  215.6554  662.2050  -40.0084 
14277.0000   11.1507 5018.6021   39.0934  170.1962 4169.1751   67.3692  278.6862 -999.0000    2.0661 -999.0000  133.4836 -999.0000  215.2652  663.8220  -40.5155 
14277.5000   11.5186 5000.1099   39.0899  170.2212 4183.8351   58.7526  278.9065 -999.0000    2.2842 -999.0000  129.3125 -999.0000  214.9640  667.7940  -41.0183 
14278.0000   11.5850 5009.9113   39.0912  170.2463 4182.8974   48.6972  279.0000 -999.0000    2.6265 -999.0000  129.4999 -999.0000  214.6096  670.9012  -41.4976 
14278.5000   11.2774 5021.7331   39.0945  170.2713 4191.2108   42.1101  279.0000 -999.0000    3.2925 -999.0000  134.6668 -999.0000  215.1200  671.9049  -41.9816 
14279.0000   10.7924 5006.3142   39.1010  170.2964 4188.8650   34.7326  278.9207 -999.0000    2.5680 -999.0000  126.8576 -999.0000  215.4731  672.4558  -42.5478 
14279.5000    9.0976 4953.0862   39.1071  170.3214 4165.5089   31.3587  278.6339 -999.0000    2.2621 -999.0000  127.5636 -999.0000  217.0551  666.5481  -43.1397 
14280.0000    8.1275 4856.0263   39.1167  170.3465 4151.9238   30.4237  278.4901 -999.0000    2.3869 -999.0000  118.9484 -999.0000  218.2251  660.1710  -43.6038 
14280.5000    7.1519 4784.2255   39.1220  170.3715 4139.5316   30.2667  278.5141 -999.0000    2.2081 -999.0000  119.9108 -999.0000  218.9965  652.8829  -44.1157 
14281.0000    6.5100 4715.3847   39.1217  170.3966 4132.4879   33.9946  278.5846 -999.0000    2.3988 -999.0000  104.9814 -999.0000  219.5681  648.7496  -44.5289 
14281.5000    6.9687 4709.8437   39.1101  170.4216 4144.4875   40.8548  278.8239 -999.0000    2.4979 -999.0000   84.1746 -999.0000  219.5139  646.0228  -45.0046 
14282.0000    6.9766 4688.3299   39.1198  170.4467 4148.6750   46.5040  279.0000 -999.0000    2.6820 -999.0000   83.6892 -999.0000  219.4528  644.5949  -45.4707 
14282.5000    6.9227 4657.0017   39.1217  170.4717 4153.6044   48.8590  278.7535 -999.0000    2.8473 -999.0000   82.6668 -999.0000  219.5729  645.8496  -46.0424 
14283.0000    6.5965 4678.8653   39.1172  170.4968 4148.8585   46.6298  278.5948 -999.0000    0.9478 -999.0000   97.6817 -999.0000  219.6838  647.0865  -46.5242 
14283.5000    6.3946 4723.1943   39.1081  170.5218 4139.4106   43.2608  278.5767 -999.0000    2.6745 -999.0000  115.1533 -999.0000  219.5130  649.5484  -47.0359 
14284.0000    6.8636 4751.3377   39.1100  170.5469 4136.9913   44.6234  278.5710 -999.0000    2.6991 -999.0000  118.0705 -999.0000  219.0028  652.4729  -47.5278 
14284.5000    7.7857 4739.2095   39.1139  170.5720 4132.5632   49.5228  278.5256 -999.0000    2.3273 -999.0000  114.6703 -999.0000  218.1705  658.0691  -48.0915 
14285.0000    8.8437 4683.2463   38.7831  170.5970 4135.0542   50.8473  278.4984 -999.0000    2.4106 -999.0000  105.7348 -999.0000  217.1085  667.1711  -48.5223 
14285.5000   10.0067 4592.9542   38.1874  170.6221 4144.4216   50.3343  278.2560 -999.0000    2.0354 -999.0000  107.5095 -999.0000  215.9979  752.3972  -49.0102 
14286.0000   10.8195 4475.7171   37.2449  170.6471 4154.8479   44.8742  278.0911 -999.0000    2.4998 -999.0000  108.6515 -999.0000  215.2582 1028.2963  -49.5366 
14286.5000   11.4051 4171.7077   34.6670  170.6722 4159.5465   34.9212  278.0912 -999.0000    2.4220 -999.0000  101.1779 -999.0000  214.7040 1452.8202  -50.0922 
14287.0000   11.7306 3974.5943   32.7815  170.6972 4157.6517   32.1577  278.0441 -999.0000    2.1527 -999.0000   97.5252 -999.0000  214.2532 1634.4062  -48.5081 
14287.5000   11.9873 3790.0443   30.9973  170.7223 4145.9637   29.3997  278.0477 -999.0000    2.2627 -999.0000   90.7392 -999.0000  213.3306 1860.6428  -44.5225 
14288.0000   12.7612 3573.3556   29.1140  170.7473 4113.9709   25.2192  277.9190 -999.0000    2.5962 -999.0000   87.9136 -999.0000  209.7997 1956.5978  -31.1535 
14288.5000   15.1989 2650.2016   20.9378  170.7724 3964.2470   42.8689  277.6093 -999.0000    2.4939 -999.0000   86.1839 -999.0000  194.9416 1192.8456   22.3483 
14289.0000   17.8832 1654.8012   12.3913  170.7974 3927.3667   48.6037  277.4667 -999.0000    2.3710 -999.0000   83.3516 -999.0000  187.2035  946.1150   38.9319 
14289.5000   19.0434 1147.9283    8.0780  170.8225 3935.2640   40.0946  277.4899 -999.0000    1.5186 -999.0000   88.3977 -999.0000  184.9530  966.5193   38.5803 
14290.0000   20.9335  813.0914    5.1103  170.8475 3945.2693   36.4791  277.4113 -999.0000    2.2736 -999.0000   92.1973 -999.0000  183.1852  984.2719   38.2595 
14290.5000   23.1656  571.8700    3.0935  170.8726 3954.2954   24.7745  277.5466 -999.0000    2.2327 -999.0000  107.4252 -999.0000  181.5839 1053.2641   37.7800 
14291.0000   22.3052  408.6554    1.8508  170.8977 3895.6585    9.3133  277.6284 -999.0000    2.6412 -999.0000  128.6839 -999.0000  183.1160 1094.7415   36.5821 
14291.5000   22.6372  404.8859    1.7174  170.9701 3902.5427    7.0487  277.6665 -999.0000    2.2373 -999.0000  134.3867 -999.0000  182.9483  968.0878   36.2242 
14292.0000   22.8409  380.4768    1.5792  171.0425 3914.0087    5.9396  277.6950 -999.0000    2.4779 -999.0000  129.9175 -999.0000  182.8071  929.7436   35.9379 
14292.5000   22.9885  335.2941    1.3917  171.1149 3916.5728    5.5243  277.6862 -999.0000    2.2893 -999.0000  131.0284 -999.0000  182.5914  909.9785   35.6785 
14293.0000   22.9886  304.5509    1.2641  171.1874 3930.3440    4.6074  277.7086 -999.0000    2.3649 -999.0000  124.3248 -999.0000  182.6969  836.5158   35.1909 
14293.5000   22.2169  282.4136    1.1722  171.2598 3935.2324    4.4724  277.6912 -999.0000    2.3935 -999.0000  115.8284 -999.0000  183.5583  836.8135   34.6991 
14294.0000   22.1837  262.7243    1.0905  171.3322 3927.4628    4.5388  277.7031 -999.0000    2.4221 -999.0000  102.6887 -999.0000  183.4289  851.5398   34.1788 
14294.5000   23.1713  245.0667    1.0193  171.4047 3921.1219    4.3345  277.7296 -999.0000    2.4507 -999.0000   94.3074 -999.0000  182.2263  881.4863   33.6785 
14295.0000   24.4118  225.2052    0.9362  171.4771 3920.6536    4.2559  277.7119 -999.0000    2.4793 -999.0000   89.8234 -999.0000  180.7965  923.7419   33.1660 
14295.5000   24.1995  184.6779    0.7568  171.5495 3922.4164    4.3632  277.7167 -999.0000    2.4361 -999.0000   90.3030 -999.0000  180.9982  949.0333   32.6995 
14296.0000   22.4065  143.5765    0.5585  171.6219 3926.6990    4.5338  277.6906 -999.0000    2.3771 -999.0000   94.6216 -999.0000  182.9568  957.7880   32.2032 
14296.5000   18.6618  103.0522    0.3754  171.6944 3934.1159    5.4689  277.6664 -999.0000    2.3484 -999.0000  100.1271 -999.0000  186.8960  904.1566   31.7047 
14297.0000   14.3134   65.7716    0.2145  171.7668 3934.3864    6.9164  277.6931 -999.0000    2.1129 -999.0000  103.6435 -999.0000  191.0281  812.0715   31.1902 
14297.5000   12.6126   51.4587    0.1443  171.8392 3936.4675    8.3624  277.6895 -999.0000    2.2903 -999.0000  111.5642 -999.0000  192.7695  719.8166   30.6834 
14298.0000   12.0058   41.8986    0.1647  171.9117 3936.7005    9.6237  277.6979 -999.0000    2.2120 -999.0000  108.2419 -999.0000  193.3423  634.4425   30.1855 
14298.5000   12.8532   41.0726    0.1919  171.9841 3924.7972   10.0513  277.7217 -999.0000    2.1946 -999.0000  102.6440 -999.0000  192.4257  606.8522   29.6833 
14299.0000   14.5668   51.1776    0.2727  172.0565 3913.7756    9.7900  277.7181 -999.0000    1.9318 -999.0000  103.6047 -999.0000  190.5947  616.0740   29.1957 
14299.5000   16.7139   55.6480    0.2965  172.1289 3901.8626    9.0224  277.7256 -999.0000    2.4797 -999.0000  101.7661 -999.0000  188.2093  631.8727   28.6956 
