~V
VERS  .       2.0                       : 
WRAP  .       NO                        : 
~W
STRT  .ft     6500.0000                 : 
STOP  .ft     15497.5000                : 
STEP  .ft        0.5000                 : 
NULL  .       -999.0000                 : 
COMP  .       Oxy                       : 
WELL  .       University 20-26 #1H      : 
FLD   .       Bone Spring               : 
LOC   .       Wink                      : 
SRVC  .       Scientific Drilling       : 
DATE  .       01/05/2009                : 
CNTY  .       Winkler County            : 
STAT  .       Texas                     : 
CTRY  .       United States             : 
API   .       42-495-33311              : 
~C
MD    .ft                               : Measured Depth
Weight-on-Bit(surf,avg).kip                              : 
TopDrvTorque.kip-ft                           : 
TopDrvSpeed.rpm                              : 
Temperature.degF                             : 
StandpipePressure.psi                              : 
ROP(MWD).ft/hr                            : 
MudFlowIn.gal/min                           : 
MergedcurvefromECD,ECDofLogAnnulusPress,ECDofLogAnnulusPress(MWD).lb/gal                           : 
LogRMSVibrations.G                                : 
LogPipePress.psi                              : 
LogGammaRay.aapi                             : 
LogAnnulusPress.psi                              : 
HookLoad(MWD).lbf                              : 
Gas(avg).%                                : 
BlockPosition(MWD).ft                               : 
~P
~O
~A
# ...
13675.0000    8.7385 4634.3365   39.0809  173.7758 4322.6913   25.5036  283.0915   12.9639    0.9915 8024.0942   54.4745 7812.6951  223.1323 1791.3753   50.9598 
13675.5000    8.6817 4619.2767   39.0785  173.7887 4325.4301   25.3105  283.1002   12.9640    2.3898 8023.6295   49.5084 7812.7767  223.1351 1803.8583   50.6051 
13676.0000    8.6999 4621.4120   39.0746  173.8017 4326.8065   25.6151  283.0371   12.9637    2.5879 8024.0095   54.8682 7812.6203  223.1508 1834.2117   50.0242 
13676.5000    8.6693 4600.5608   39.0801  173.8146 4323.4812   25.5637  283.0415   12.9640    2.7428 8024.4556   54.3453 7812.8332  223.1316 2021.3831   49.4799 
13677.0000    8.5534 4604.6162   39.0833  173.8275 4322.5436   24.6769  283.1074   12.9636    2.2085 8023.6949   56.4066 7812.5670  223.2258 2423.3474   48.9384 
13677.5000    8.5665 4608.6043   39.0823  173.8405 4320.6914   23.1266  283.0000   12.9637    2.3054 8023.9086   57.2100 7812.6417  223.2194 2823.5342   48.5040 
13678.0000    8.3995 4596.8231   39.0823  173.8534 4321.4780   22.8180  282.9410   12.9632    0.9887 8024.1011   51.3022 7812.3405  223.3272 3337.7123   48.0171 
13678.5000    8.3926 4590.9848   39.0802  173.8663 4322.6686   22.1498  282.9457   12.9633    1.9884 8023.9218   56.6524 7812.4367  223.3732 3724.3200   47.5294 
13679.0000    8.4440 4589.3229   39.0779  173.8793 4322.7723   22.4331  282.9392   12.9632    2.3323 8023.6013   54.3672 7812.4082  223.3385 3926.1808   47.0108 
13679.5000    8.4310 4580.3772   39.0725  173.8922 4322.5382   22.7439  282.9777   12.9637    2.6953 8023.5856   53.6173 7812.6776  223.3569 3815.2883   46.5140 
13680.0000    8.5022 4562.6598   39.0707  173.9051 4325.4060   23.3307  283.0357   12.9635    1.2285 8023.9287   56.5226 7812.5639  223.1645 3373.2312   46.0297 
13680.5000    8.5434 4562.8884   39.0773  173.9180 4326.5241   22.3608  283.0362   12.9631    2.5054 8023.7716   54.1887 7812.3553  223.2420 2629.7584   45.5026 
13681.0000    8.5674 4559.3872   39.0803  173.9310 4328.6816   23.4051  282.9821   12.9633    1.3745 8023.6417   54.0486 7812.5054  223.0851 1909.9786   45.0163 
13681.5000    8.5094 4545.6696   39.0845  173.9439 4328.5161   21.1755  283.1133   12.9632    2.5348 8023.7009   56.4850 7812.4045  223.2276 1366.9672   44.4776 
13682.0000    8.5148 4520.3263   39.0883  173.9568 4326.0350   20.4891  283.1152   12.9629    2.1286 8023.8500   53.1615 7812.2413  223.2647 1163.4294   44.0061 
13682.5000    8.5633 4493.6589   39.0905  173.9698 4325.8246   21.4454  283.1032   12.9632    2.5908 8023.5919   55.4749 7812.4690  223.1052 1089.4374   43.5256 
13683.0000    8.6232 4472.2591   39.0897  173.9827 4324.3376   19.2650  283.1117   12.9633    2.2419 8023.3857   55.6360 7812.5482  223.1722 1100.6666   43.0307 
13683.5000    8.7212 4454.5075   39.0883  173.9956 4325.0260   20.7091  282.9861   12.9629    2.1528 8023.3171   55.5361 7812.2956  223.0620 1141.6634   42.4998 
13684.0000    8.6853 4422.3842   39.0922  174.0085 4326.2576   20.2225  282.9578   12.9630    1.9992 8023.3413   53.3527 7812.3449  223.1444 1202.0307   41.9943 
13684.5000    8.5511 4401.4996   39.0939  174.0215 4324.8320   18.6939  282.9974   12.9629    1.9494 8023.5416   54.4628 7812.2916  223.3128 1260.6958   41.5093 
13685.0000    8.4017 4388.4663   39.0928  174.0344 4324.6818   19.6791  283.0495   12.9628    2.8729 8023.4537   54.6098 7812.2837  223.3509 1301.0398   41.0092 
13685.5000    8.3102 4357.1516   39.0978  174.0473 4326.2130   18.3139  283.0835   12.9627    2.4824 8023.1373   54.6530 7812.2267  223.4792 1334.0825   40.5319 
13686.0000    8.4463 4347.2994   39.0973  174.0603 4324.4898   19.5030  283.0958   12.9626    1.6926 8023.2934   54.9686 7812.1720  223.2774 1539.3473   40.0528 
13686.5000    8.4770 4334.8518   39.0974  174.0732 4326.0973   21.0060  283.0723   12.9628    2.3192 8023.1951   52.8579 7812.2834  223.1288 1921.3863   39.5450 
13687.0000    8.5572 4311.3917   39.0940  174.0861 4325.1797   20.3543  283.0181   12.9627    2.7294 8023.3335   57.9081 7812.2553  223.1722 2363.4442   39.0080 
13687.5000    8.5728 4293.6892   39.0933  174.0990 4321.5496   20.4285  283.0248   12.9628    2.1747 8023.2679   53.9900 7812.3012  223.0982 2612.0505   38.4351 
13688.0000    8.4473 4286.4823   39.0937  174.1120 4322.7152   19.5890  283.0332   12.9626    2.1922 8022.8709   55.1614 7812.2205  223.1001 2581.2077   37.9833 
13688.5000    8.5551 4289.1065   39.0925  174.1249 4321.2762   18.7782  283.0560   12.9625    1.9084 8023.6286   58.2052 7812.1935  223.1577 2305.8368   37.5259 
13689.0000    8.6058 4295.8530   39.0916  174.1378 4320.6719   18.8825  282.9768   12.6717    1.2362 8023.1156   52.5101 7636.8988  222.9787 1988.2826   37.0041 
13689.5000    8.6572 4304.8589   39.0935  174.1508 4321.8703   18.9722  282.9541   12.9660    1.7837 8023.5143   55.6649 7814.2900  222.9281 1804.7723   36.5072 
13690.0000    8.6804 4305.6145   39.0927  174.1637 4320.1986   18.7023  282.9611   12.9656    1.8982 8027.6875   54.3566 7814.0569  223.0199 1717.4047   36.0192 
13690.5000    8.5903 4309.8738   39.0941  174.1766 4320.0360   19.3069  282.9598   12.9651    3.0578 8026.2485   51.7140 7813.7626  222.9515 1656.4789   35.5284 
13691.0000    8.5508 4303.9203   39.0905  174.1896 4319.2766   19.1891  283.0340   12.9644    2.7388 8025.7740   57.0326 7813.3916  223.0555 1612.6399   34.9940 
13691.5000    8.5218 4310.5264   39.0951  174.2025 4319.7960   20.1314  283.0557   12.9648    2.8063 8025.8291   56.2313 7813.5882  223.0099 1587.0686   34.5360 
13692.0000    8.6028 4329.0999   39.0921  174.2154 4318.7953   19.7244  283.0866   12.9644    1.0480 8025.9958   55.2879 7813.3868  222.9688 1565.2291   34.0061 
13692.5000    8.7474 4329.7930   39.0940  174.2283 4319.4336   20.1096  283.0315   12.9647    2.8341 8025.3444   55.9860 7813.5518  222.8262 1542.5564   33.5472 
13693.0000    8.8641 4328.7604   39.0951  174.2413 4319.9382   20.4464  283.0405   12.9647    1.8908 8024.7692   54.9964 7813.5883  222.7478 1518.2922   33.0218 
13693.5000    8.9815 4342.8768   39.0959  174.2542 4317.9964   20.3678  283.0592   12.9643    2.4250 8024.7738   56.1733 7813.3403  222.6691 1506.7031   32.5353 
13694.0000    8.9837 4353.5676   39.0972  174.2671 4320.4591   21.1426  283.0296   12.9639    2.2431 8025.1133   54.8602 7813.1518  222.5984 1497.1677   32.0232 
13694.5000    8.9712 4360.2179   39.0930  174.2801 4319.1293   20.1092  283.0761   12.9640    2.5676 8025.2008   53.3848 7813.1989  222.6823 1490.0222   31.5040 
13695.0000    8.8670 4364.0963   39.0937  174.2930 4318.4078   20.2199  283.0737   12.9635    2.1008 8024.4255   57.3409 7812.9342  222.7058 1487.3006   31.0146 
13695.5000    8.8358 4355.8649   39.0919  174.3059 4319.6269   20.3910  283.0712   12.9637    2.3179 8025.0292   56.1534 7813.0416  222.6684 1484.4430   30.5348 
13696.0000    8.9359 4361.2125   39.0902  174.3188 4318.3884   20.7074  283.0515   12.9633    1.4887 8024.0342   55.6318 7812.8104  222.5954 1485.1442   30.0398 
13696.5000    8.9069 4399.5110   39.0897  174.3318 4318.2097   21.2098  283.0516   12.9632    1.8371 8024.4752   57.3497 7812.7333  222.5695 1485.6659   29.5136 
13697.0000    8.8652 4434.6222   39.0861  174.3447 4258.2258   20.9705  283.0877   12.9630    1.7379 8024.0546   54.4214 7812.6463  222.7055 1482.9006   29.0121 
13697.5000    8.4262 4484.4465   39.0876  174.3576 3825.7223   20.6458  283.0673   12.9628    2.4860 8023.9916   59.4257 7812.5626  222.8677 1475.1301   28.5889 
13698.0000    7.4409 4529.3455   39.0775  174.3706 3755.2019   23.0236  283.1215   12.9630    2.0418 8023.9976   54.6963 7812.6671  223.0277 1449.1816   28.1438 
13698.5000    6.6967 4552.4977   39.0782  174.3835 3670.7521   26.6849  283.0787   12.9628    2.3239 8023.9321   56.9980 7812.5841  222.9275 1425.2220   27.6560 
13699.0000    7.5302 4599.1250   39.0806  174.3964 3726.0175   29.8572  282.9738   12.9630    1.9406 8023.9074   56.1524 7812.6877  220.8765 1388.6018   27.0175 
13699.5000    9.4563 4634.4717   39.0817  174.4093 4358.5440   33.1329  283.0227   12.9628    2.0675 8023.6342   55.5244 7812.5826  218.8789 1377.5401   26.4661 
