~V
VERS  .       2.0                       : 
WRAP  .       NO                        : 
~W
STRT  .ft     6500.0000                 : 
STOP  .ft     15497.5000                : 
STEP  .ft        0.5000                 : 
NULL  .       -999.0000                 : 
COMP  .       Oxy                       : 
WELL  .       University 20-26 #1H      : 
FLD   .       Bone Spring               : 
LOC   .       Wink                      : 
SRVC  .       Scientific Drilling       : 
DATE  .       01/05/2009                : 
CNTY  .       Winkler County            : 
STAT  .       Texas                     : 
CTRY  .       United States             : 
API   .       42-495-33311              : 
~C
MD    .ft                               : Measured Depth
Weight-on-Bit(surf,avg).kip                              : 
TopDrvTorque.kip-ft                           : 
TopDrvSpeed.rpm                              : 
Temperature.degF                             : 
StandpipePressure.psi                              : 
ROP(MWD).ft/hr                            : 
MudFlowIn.gal/min                           : 
MergedcurvefromECD,ECDofLogAnnulusPress,ECDofLogAnnulusPress(MWD).lb/gal                           : 
LogRMSVibrations.G                                : 
LogPipePress.psi                              : 
LogGammaRay.aapi                             : 
LogAnnulusPress.psi                              : 
HookLoad(MWD).lbf                              : 
Gas(avg).%                                : 
BlockPosition(MWD).ft                               : 
~P
~O
~A
# ...
14875.0000    6.8322 4585.2476   39.0711  173.3779 4327.3065   30.8994  277.4570 -999.0000    2.4657 -999.0000  119.4029 -999.0000  219.5629  605.3840   79.1159 
14875.5000    6.7006 4591.2796   39.0697  173.3779 4332.6957   31.5081  277.4569 -999.0000    2.4541 -999.0000  119.3131 -999.0000  219.6787  492.5674   78.5735 
14876.0000    6.5631 4576.0553   39.0707  173.3779 4332.0833   34.4584  277.4760 -999.0000    3.9077 -999.0000  119.4328 -999.0000  219.8130  427.2273   78.0470 
14876.5000    6.3887 4560.1221   39.0684  173.3779 4337.7215   36.4568  277.4924 -999.0000    1.9255 -999.0000  119.8470 -999.0000  220.0201  389.9243   77.5700 
14877.0000    6.1199 4562.2835   39.0688  173.3779 4335.0090   36.9280  277.4914 -999.0000    2.4653 -999.0000  120.1182 -999.0000  220.1822  362.9331   77.1026 
14877.5000    6.0572 4564.3304   39.0661  173.3779 4328.1178   40.0655  277.4697 -999.0000   11.3609 -999.0000  121.0873 -999.0000  220.1184  340.7340   76.5312 
14878.0000    6.0816 4551.9424   39.0680  173.3779 4333.0612   40.3091  277.4596 -999.0000    2.5249 -999.0000  121.6736 -999.0000  220.1292  326.7701   76.0220 
14878.5000    6.0685 4537.1144   39.0697  173.3779 4327.3170   40.1166  277.4641 -999.0000    2.4457 -999.0000  121.3951 -999.0000  220.0441  316.3094   75.5219 
14879.0000    5.9963 4537.0194   39.0717  173.3779 4321.0630   39.3896  277.4214 -999.0000    2.3665 -999.0000  120.7120 -999.0000  220.0543  308.8033   75.0247 
14879.5000    5.9168 4521.6115   39.0671  173.3779 4316.3511   39.0905  277.3940 -999.0000    2.2872 -999.0000  119.5265 -999.0000  220.1301  304.1559   74.5244 
14880.0000    5.8520 4531.7548   39.0743  173.3779 4311.0932   38.8286  277.3871 -999.0000    0.9710 -999.0000  119.6805 -999.0000  220.1431  301.7926   74.0263 
14880.5000    5.8987 4526.9208   39.0698  173.3779 4310.6099   38.4878  277.3772 -999.0000    1.3714 -999.0000  120.2541 -999.0000  220.1367  301.3454   73.5298 
14881.0000    6.0235 4525.9988   39.0679  173.3779 4313.6470   38.7436  277.4127 -999.0000    2.5428 -999.0000  120.1283 -999.0000  220.0938  302.6150   73.0408 
14881.5000    6.2526 4529.1904   39.0659  173.3779 4323.2020   39.6144  277.4473 -999.0000    3.1218 -999.0000  119.6672 -999.0000  220.0459  303.8404   72.5484 
14882.0000    6.4802 4517.8163   39.0599  173.4021 4328.2806   39.9606  277.4882 -999.0000    2.0930 -999.0000  118.8552 -999.0000  219.9364  304.9596   72.0380 
14882.5000    6.5844 4511.7190   39.0563  173.5655 4331.8597   41.1215  277.4817 -999.0000    1.4054 -999.0000  117.9522 -999.0000  219.8971  305.6900   71.5425 
14883.0000    6.6528 4483.2915   39.0572  173.7289 4336.2375   42.4861  277.4732 -999.0000    2.1175 -999.0000  118.4364 -999.0000  219.9337  305.4019   71.0581 
14883.5000    6.5916 4449.2255   39.0579  173.8922 4338.4814   43.6695  277.4732 -999.0000    2.5234 -999.0000  119.4764 -999.0000  219.9392  305.1350   70.5700 
14884.0000    6.4448 4425.1123   39.0604  174.0556 4346.1134   45.6037  277.4554 -999.0000    2.0372 -999.0000  119.8608 -999.0000  220.0982  305.3218   70.0370 
14884.5000    6.2968 4408.9539   39.0559  174.2190 4347.6923   46.3951  277.4231 -999.0000   23.8556 -999.0000  120.0029 -999.0000  220.2095  305.5769   69.5267 
14885.0000    6.1332 4405.8945   39.0573  174.3824 4340.2884   46.0671  277.4458 -999.0000    2.1319 -999.0000  119.8723 -999.0000  220.2371  305.9481   69.0146 
14885.5000    5.9115 4395.1811   39.0646  174.5458 4328.1840   45.2699  277.4400 -999.0000    2.0115 -999.0000  119.7417 -999.0000  220.2371  304.4571   68.5146 
14886.0000    5.7550 4410.2499   39.0605  174.7092 4317.7610   44.5457  277.4814 -999.0000    2.2447 -999.0000  119.6110 -999.0000  220.2454  302.8958   68.0213 
14886.5000    5.6385 4374.6022   39.0614  174.8725 4309.9605   44.0820  277.4908 -999.0000    2.4295 -999.0000  119.4804 -999.0000  220.3333  301.4390   67.5401 
14887.0000    5.5789 4375.0598   39.0582  175.0359 4308.2362   45.3358  277.4858 -999.0000    8.6954 -999.0000  119.3442 -999.0000  220.3432  300.8315   67.0669 
14887.5000    5.7022 4381.0112   39.0596  175.1993 4311.9312   47.5750  277.5137 -999.0000    2.0261 -999.0000  119.1357 -999.0000  220.3547  301.2810   66.5912 
14888.0000    5.9500 4343.1683   39.0596  175.3627 4321.0271   51.4963  277.4701 -999.0000    2.3393 -999.0000  119.5185 -999.0000  220.2977  301.1071   66.1015 
14888.5000    6.2371 4306.1723   39.0674  175.5261 4335.9648   48.7172  277.4995 -999.0000    2.5247 -999.0000  119.2161 -999.0000  220.2370  302.4849   65.4964 
14889.0000    6.3253 4283.6065   39.0643  175.6894 4334.0593   48.5745  277.5105 -999.0000    2.3843 -999.0000  120.0802 -999.0000  220.1647  303.2678   64.9917 
14889.5000    6.4213 4264.5587   39.0683  175.8528 4340.3598   48.3108  277.4759 -999.0000    8.6350 -999.0000  119.7722 -999.0000  220.1486  304.2194   64.5258 
14890.0000    6.2903 4244.6577   39.0712  175.5361 4343.0104   41.3784  277.4679 -999.0000    2.4821 -999.0000  119.4571 -999.0000  220.2912  306.2649   63.9944 
14890.5000    5.9802 4231.7135   39.0676  175.2028 4328.3743   40.8854  277.4773 -999.0000    2.0996 -999.0000  120.1889 -999.0000  220.3664  309.1783   63.4366 
14891.0000    5.8031 4232.0913   39.0735  174.8695 4320.2841   37.5368  277.5235 -999.0000    2.3232 -999.0000  119.5773 -999.0000  220.3849  311.6388   62.9541 
14891.5000    5.6011 4226.1965   39.0755  174.5362 4302.8648   34.5336  277.5454 -999.0000   16.3606 -999.0000  120.3630 -999.0000  220.3629  312.9856   62.5269 
14892.0000    5.4092 4234.9874   39.0755  174.2029 4278.1383   34.8731  277.5312 -999.0000    2.3294 -999.0000  120.5716 -999.0000  220.2885  314.3395   62.0306 
14892.5000    5.3700 4216.4077   39.0808  173.8696 4268.6559   35.5335  277.5427 -999.0000    2.2849 -999.0000  118.9553 -999.0000  220.1648  315.5943   61.5648 
14893.0000    5.3948 4230.5728   39.0778  173.5364 4264.4943   37.7224  277.5297 -999.0000   17.9996 -999.0000  119.3530 -999.0000  220.0973  317.2336   61.1025 
14893.5000    5.4732 4243.9324   39.0813  173.3779 4267.6095   41.5961  277.4940 -999.0000    2.0612 -999.0000  119.7941 -999.0000  220.0008  319.2468   60.6271 
14894.0000    5.7314 4221.9502   39.0838  173.3779 4282.2203   47.0375  277.5579 -999.0000   23.7531 -999.0000  120.6577 -999.0000  219.8793  320.5738   60.1117 
14894.5000    6.3385 4232.9464   39.0851  173.3779 4308.5251   52.9515  277.5077 -999.0000    2.2267 -999.0000  121.3282 -999.0000  219.7760  320.2645   59.5505 
14895.0000    6.6494 4280.0789   39.0913  173.3779 4330.1466   50.3172  277.4856 -999.0000    2.2736 -999.0000  120.7468 -999.0000  219.7524  318.8398   59.0019 
14895.5000    6.8589 4265.1087   39.0909  173.3779 4342.8744   51.7871  277.5247 -999.0000    2.3353 -999.0000  120.5464 -999.0000  219.7416  317.6087   58.5418 
14896.0000    6.8549 4271.7630   39.0893  173.3779 4349.7760   47.5859  277.4631 -999.0000    2.9783 -999.0000  121.3514 -999.0000  219.7683  316.8490   58.0085 
14896.5000    7.2911 4229.1209   39.0777  173.3779 4343.1062   46.1707  277.4347 -999.0000    2.6151 -999.0000  123.4289 -999.0000  219.0699  315.3037   57.5632 
14897.0000    8.8398 4190.3930   39.0784  173.3779 4343.8200   52.0061  277.4255 -999.0000    2.5659 -999.0000  125.0724 -999.0000  218.0442  314.7311   56.9984 
14897.5000    9.6191 4152.4125   39.0745  173.3779 4333.7728   43.5585  277.4458 -999.0000    2.0028 -999.0000  126.0971 -999.0000  217.4171  314.4611   56.5554 
14898.0000   10.8443 4088.4594   39.0726  173.3779 4296.0847   44.8778  277.5435 -999.0000    2.5768 -999.0000  125.6062 -999.0000  216.2984  314.2085   56.0319 
14898.5000   10.3012 4037.5107   39.0707  173.3779 4270.5842   37.4014  277.6237 -999.0000    2.4908 -999.0000  125.1064 -999.0000  216.9495  314.1694   55.4390 
14899.0000    8.1209 3959.6096   39.0649  173.3779 4235.1676   31.0091  277.6561 -999.0000    2.2356 -999.0000  125.0742 -999.0000  218.3194  314.1539   54.9055 
14899.5000    6.7891 3919.8883   39.0712  173.3779 4220.2757   33.8708  277.6615 -999.0000    2.0130 -999.0000  125.4282 -999.0000  219.2532  315.3714   54.4637 
