~V
VERS  .       2.0                       : 
WRAP  .       NO                        : 
~W
STRT  .ft     6500.0000                 : 
STOP  .ft     15497.5000                : 
STEP  .ft        0.5000                 : 
NULL  .       -999.0000                 : 
COMP  .       Oxy                       : 
WELL  .       University 20-26 #1H      : 
FLD   .       Bone Spring               : 
LOC   .       Wink                      : 
SRVC  .       Scientific Drilling       : 
DATE  .       01/05/2009                : 
CNTY  .       Winkler County            : 
STAT  .       Texas                     : 
CTRY  .       United States             : 
API   .       42-495-33311              : 
~C
MD    .ft                               : Measured Depth
Weight-on-Bit(surf,avg).kip                              : 
TopDrvTorque.kip-ft                           : 
TopDrvSpeed.rpm                              : 
Temperature.degF                             : 
StandpipePressure.psi                              : 
ROP(MWD).ft/hr                            : 
MudFlowIn.gal/min                           : 
MergedcurvefromECD,ECDofLogAnnulusPress,ECDofLogAnnulusPress(MWD).lb/gal                           : 
LogRMSVibrations.G                                : 
LogPipePress.psi                              : 
LogGammaRay.aapi                             : 
LogAnnulusPress.psi                              : 
HookLoad(MWD).lbf                              : 
Gas(avg).%                                : 
BlockPosition(MWD).ft                               : 
~P
~O
~A
# ...
13075.0000    4.6847 4185.7841   39.0918  163.4567 4338.4764   36.4717  283.1192   12.9868    1.7245 8036.3504   87.2263 7821.5041  224.7105  374.1496   79.0797 
13075.5000    4.8424 4235.1526   39.0942  163.4567 4345.9526   37.7114  283.0460   12.9869    1.7016 8036.2790   78.3483 7821.5051  224.6938  373.9470   78.5852 
13076.0000    4.8903 4286.7942   39.0995  163.4567 4351.6139   39.2358  283.0751   12.9866    1.7527 8036.1269   81.2326 7821.3502  224.6900  372.7151   78.0949 
13076.5000    4.9160 4277.7409   39.1009  163.4567 4362.6447   36.8542  283.0970   12.9867    1.7130 8036.3521   85.2615 7821.4205  224.7858  371.1369   77.5927 
13077.0000    4.9181 4274.4940   39.1099  163.4567 4356.0457   40.4378  283.0522   12.9867    1.6525 8035.8900   79.4668 7821.3980  224.5923  369.3943   77.0668 
13077.5000    4.8505 4301.1746   39.1177  163.4966 4357.4267   38.3668  283.0427   12.9864    1.7003 8036.2102   81.2252 7821.2246  224.6912  368.3518   76.5478 
13078.0000    4.8698 4309.0583   39.1211  163.7090 4359.2825   39.8443  283.0756   12.9906    2.1954 8035.5017   85.8502 7823.7060  224.7139  368.1942   76.1017 
13078.5000    4.8333 4318.5971   39.1126  163.9213 4359.2580   39.5270  283.1017   12.9902    2.1126 8036.1303   86.2552 7823.4565  224.6926  371.9587   75.5315 
13079.0000    4.7696 4311.9709   39.1218  164.1337 4360.9366   39.7996  283.1377   12.9899    1.9830 8039.5436   90.8851 7823.3012  224.7616  379.4589   75.0804 
13079.5000    4.8448 4286.6767   39.1181  164.3460 4358.0866   43.2597  283.2062   12.9896    2.2493 8039.3098   89.4084 7823.1288  224.6060  391.6816   74.5808 
13080.0000    5.0201 4295.2688   39.1261  164.5584 4364.9156   39.9179  283.1163   12.9893    2.2478 8038.8590   90.5886 7822.9150  224.6302  399.1516   74.0758 
13080.5000    4.9207 4284.9109   39.1289  164.7708 4359.8081   42.8943  283.0895   12.9889    2.4361 8038.9209   93.9963 7822.6794  224.4634  403.0370   73.5491 
13081.0000    5.0361 4287.5832   39.1417  164.9831 4363.1627   43.5162  283.0756   12.9891    1.4680 8038.3771   90.4834 7822.7945  224.5686  398.3233   73.0705 
13081.5000    4.9646 4282.6732   39.1415  165.1955 4369.3034   41.4225  283.0880   12.9889    2.3249 8038.1538   91.3806 7822.6401  224.7405  387.8327   72.5706 
13082.0000    4.7354 4305.7091   39.1423  165.4078 4359.9133   44.5859  283.1795   12.9888    2.0863 8037.9438   93.5297 7822.6113  224.6281  378.3336   72.0384 
13082.5000    4.8530 4275.5128   39.1385  165.6202 4364.4113   44.7239  283.1281   12.9885    2.0641 8037.9340   97.3337 7822.4182  224.7182  372.4336   71.5418 
13083.0000    4.7565 4281.3781   39.1307  165.8325 4366.2791   43.6338  283.0509   12.9889    1.7257 8037.8195   91.0470 7822.6451  224.7642  367.7973   71.0864 
13083.5000    4.7499 4273.0703   39.1321  166.0449 4364.0488   46.4145  283.0165   12.9892    1.9104 8037.6603   94.7282 7822.7916  224.6667  359.3582   70.5793 
13084.0000    4.7750 4256.4706   39.1189  166.2572 4372.6367   46.9148  282.9421   12.9893    2.2017 8038.0581   93.8399 7822.8895  224.7567  347.8343   70.0961 
13084.5000    4.7544 4255.6861   39.1154  166.4696 4374.1493   46.2234  283.0315   12.9888    2.0111 8038.1661   98.1741 7822.5802  224.8582  332.9221   69.5147 
13085.0000    4.5663 4252.8035   39.1279  166.6819 4367.3784   45.9733  283.0755   12.9887    2.1840 8038.0006   93.7777 7822.4662  224.9101  323.1926   69.0242 
13085.5000    4.3712 4249.6460   39.1136  166.8943 4359.3280   44.7417  283.0538   12.9882    2.2293 8037.8606   93.3566 7822.1800  224.9917  310.6376   68.5520 
13086.0000    4.1560 4274.5690   39.1076  167.1067 4350.7117   43.8157  283.0935   12.9883    2.3309 8037.4808   93.1185 7822.2113  225.0180  299.5559   68.0782 
13086.5000    3.8365 4266.3649   39.1068  167.3190 4334.2533   44.7349  283.0727   12.9884    2.4644 8037.1962   94.7480 7822.3084  224.9598  292.2397   67.5492 
13087.0000    3.8521 4263.9781   39.1015  167.5314 4329.8080   45.8510  283.1317   12.9880    2.0998 8036.9424   93.2887 7822.0198  224.9382  292.0163   67.0871 
13087.5000    3.8502 4272.9043   39.0900  167.7437 4329.9031   48.1280  283.1420   12.9874    2.2357 8036.8704   94.0855 7821.6640  224.9604  294.8127   66.6126 
13088.0000    3.8905 4268.9464   39.0854  167.9561 4338.0255   51.0192  283.1326   12.9877    2.2423 8036.6209   98.6060 7821.8448  225.1807  300.9199   66.0745 
13088.5000    3.8748 4250.2560   39.0839  168.1684 4347.9317   52.0237  283.1478   12.9879    2.3975 8036.3856   92.3575 7821.9459  225.3054  302.8806   65.5571 
13089.0000    3.8970 4257.3783   39.0855  168.3808 4350.5837   54.0339  283.0527   12.9873    1.1946 8036.3901   95.9976 7821.5881  225.2753  295.6630   65.0545 
13089.5000    3.9455 4283.8874   39.0746  167.9944 4354.3860   54.6415  283.0291   12.9875    2.4885 8036.1223   95.8361 7821.7217  225.2615  295.0147   64.5879 
13090.0000    4.0615 4291.4344   39.0757  167.4837 4353.2826   55.2681  283.0392   12.9872    1.6073 8036.0410   88.3490 7821.5231  225.2297  296.5626   64.0531 
13090.5000    4.2273 4309.3053   39.0861  166.9729 4356.9780   54.1971  282.9905   12.9869    2.5258 8036.5818   93.7487 7821.3423  225.1929  298.0601   63.5298 
13091.0000    4.3466 4335.1059   39.0880  166.4622 4361.4364   54.5912  282.9847   12.9868    2.1708 8035.9148   89.9932 7821.2425  225.0343  300.3740   63.0572 
13091.5000    4.4904 4360.4301   39.0888  165.9515 4363.2895   55.0772  282.9866   12.9866    2.3468 8035.8070   91.1574 7821.1569  224.9151  301.7653   62.5747 
13092.0000    4.4471 4337.4740   38.8114  166.0550 4364.0703   51.4987  283.0260   12.9861    2.1718 8035.8923   94.0990 7820.8174  224.9035  301.8045   62.0657 
13092.5000    4.5342 4291.0916   38.3128  166.1765 4356.1102   54.4987  283.0868   12.9866    2.5870 8035.4610   97.2993 7821.1296  224.7536  302.5331   61.5520 
13093.0000    4.7124 4151.5833   38.3571  166.2980 4359.4443   54.8267  283.1374   12.9865    1.9697 8035.3221   91.2214 7821.0368  224.6000  302.6057   61.0886 
13093.5000    4.9928 4086.5672   38.4371  166.4195 4362.4843   53.0095  283.1636   12.9860    2.3442 8035.3909   94.4513 7820.7259  224.2963  302.1796   60.5492 
13094.0000    5.1974 4052.5312   38.4785  166.5409 4358.4899   53.8108  281.9539   12.9864    2.5010 8035.0890   92.2413 7820.9497  223.9391  302.8586   60.0462 
13094.5000    5.1435 4043.0060   38.4929  166.6624 4147.6838   51.3362  270.9590   12.9864    1.5386 8034.7708   90.9440 7820.9632  220.3933  301.6244   59.7253 
13095.0000    6.5481 4085.7275   38.5244  166.7839 3981.4127   37.3024  265.7824   12.9859    2.2803 8034.7630   90.3905 7820.6837  218.0908  309.6754   59.0505 
13095.5000    8.4165 4082.8982   38.5495  166.9054 3931.8716   32.6665  266.3558   12.9860    1.5657 8034.9126   89.3610 7820.7069  217.2910  319.2404   58.3470 
13096.0000   10.5303 4074.0212   38.5712  167.0269 3993.8022   25.6837  271.5468   12.9858    2.3666 8034.7691   93.5593 7820.5669  217.8428  328.0030   57.7322 
13096.5000   11.1702 4082.4765   38.5870  167.1483 4145.2311   27.0790  279.1754   12.9859    2.4559 8035.1310   88.4688 7820.6413  220.0341  331.6583   57.4618 
13097.0000   11.9062 4077.6214   38.5874  167.2698 4253.1772   31.6567  283.1606   12.9861    2.2910 8034.6596   88.0014 7820.7307  221.0290  334.7384   57.0736 
13097.5000   11.2867 4090.2194   38.6006  167.3913 4285.6025   29.2840  283.1647   12.9861    1.9422 8034.8684   87.2836 7820.7445  222.1917  336.0069   56.6279 
13098.0000   10.3129 4094.1115   38.6013  167.5128 4308.4472   32.6827  283.1432   12.9860    3.0742 8034.7602   83.0882 7820.7001  223.3237  338.3346   56.0401 
13098.5000    9.3522 4109.8442   38.7590  167.6342 4324.6197   31.7597  283.1676   12.9861    1.3116 8034.5775   83.3853 7820.7392  224.4716  339.7576   55.5534 
13099.0000    8.4404 4139.2639   39.0040  167.7557 4329.5471   29.3919  283.1855   12.9863    2.2427 8034.9684   76.6005 7820.8675  225.3851  341.0054   55.1156 
13099.5000    8.3424 4245.1745   39.0864  167.8772 4325.1516   33.9333  283.1466   12.9863    2.1465 8034.9323   77.6151 7820.8635  225.2089  344.2022   54.6150 
