~V
VERS  .       2.0                       : 
WRAP  .       NO                        : 
~W
STRT  .ft     6500.0000                 : 
STOP  .ft     15497.5000                : 
STEP  .ft        0.5000                 : 
NULL  .       -999.0000                 : 
COMP  .       Oxy                       : 
WELL  .       University 20-26 #1H      : 
FLD   .       Bone Spring               : 
LOC   .       Wink                      : 
SRVC  .       Scientific Drilling       : 
DATE  .       01/05/2009                : 
CNTY  .       Winkler County            : 
STAT  .       Texas                     : 
CTRY  .       United States             : 
API   .       42-495-33311              : 
~C
MD    .ft                               : Measured Depth
Weight-on-Bit(surf,avg).kip                              : 
TopDrvTorque.kip-ft                           : 
TopDrvSpeed.rpm                              : 
Temperature.degF                             : 
StandpipePressure.psi                              : 
ROP(MWD).ft/hr                            : 
MudFlowIn.gal/min                           : 
MergedcurvefromECD,ECDofLogAnnulusPress,ECDofLogAnnulusPress(MWD).lb/gal                           : 
LogRMSVibrations.G                                : 
LogPipePress.psi                              : 
LogGammaRay.aapi                             : 
LogAnnulusPress.psi                              : 
HookLoad(MWD).lbf                              : 
Gas(avg).%                                : 
BlockPosition(MWD).ft                               : 
~P
~O
~A
# ...
10100.0000   19.1058 5184.5860   39.1220  138.6535 3177.0098   31.8613  600.0000    9.7766    1.9544 6703.9998   31.7015 5128.8705  253.9811  270.9877   58.7691 
10100.5000   19.0852 5347.8826   39.1166  138.6535 3156.4650   32.9950  600.0000    9.8120    2.1029 6721.2917   35.0564 5147.7125  254.3102  309.0000   58.2689 
10101.0000   19.1362 5373.1550   39.1246  138.6535 3207.5441   33.6089  600.0000    9.8110    2.0062 6730.8769   37.7958 5147.4535  254.6513  333.0000   57.7688 
10101.5000   19.1189 5440.7894   39.1293  138.6535 3260.6015   33.9758  600.0000    9.8149    1.8997 6728.4884   35.3942 5149.7450  256.6150  348.0000   57.2692 
10102.0000   19.1404 5460.4239   39.1280  138.6535 3178.4177   35.1617  600.0000    9.7984    2.1063 6712.8644   35.5809 5141.3498  259.1308  367.0000   56.7691 
10102.5000   19.1456 5307.2522   39.1186  138.6535 3172.0994   33.5691  600.0000    9.7973    2.0237 6761.8822   41.5887 5140.9968  260.3607  365.0000   56.2693 
10103.0000   19.0900 5281.5840   39.1239  138.6535 3143.8845   34.1540  600.0000    9.8053    1.6372 6727.5418   49.1009 5145.4880  262.0120  365.0000   55.7687 
10103.5000   19.1056 5298.6606   39.1230  138.6535 3161.2546   35.0337  600.0000    9.8136    1.9504 6741.2928   56.5764 5150.0872  262.0394  371.0000   55.2685 
10104.0000   19.1411 5324.8829   39.1263  138.6535 3210.9326   35.6100  600.0000    9.7891    1.6774 6753.0980   65.8988 5137.4547  261.8013  361.0000   54.7691 
10104.5000   19.1356 5171.6771   39.1295  138.6535 3134.7716   34.8882  600.0000    9.7865    1.8849 6706.4381   66.0755 5136.3415  261.6095  348.0000   54.2691 
10105.0000   19.1841 5146.5630   39.1280  138.6535 3154.9218   32.8757  600.0000    9.8012    1.8171 6706.5746   58.8722 5144.3347  261.4428  334.0000   53.7692 
10105.5000   19.2087 5022.0913   39.1221  138.6535 3130.3040   31.8156  600.0000    9.7853    1.9302 6736.4179   55.8495 5136.2339  261.1573  297.9598   53.2688 
10106.0000   19.1853 4970.6839   39.1090  138.6535 3181.5275   31.4640  600.0000    9.8053    1.5858 6745.8535   50.5752 5147.0194  261.3404  279.0000   52.7689 
10106.5000   19.1934 5158.9830   39.1110  138.6535 3155.4527   32.3347  600.0000    9.8252    1.9553 6730.4420   51.3853 5157.6778  261.3140  269.0000   52.2687 
10107.0000   19.1526 5157.0347   39.1111  138.6535 3174.7144   34.5369  600.0000    9.7958    1.8593 6795.0787   54.7662 5142.4934  261.4100  251.7637   51.7688 
10107.5000   19.1447 5044.7397   39.1083  138.6535 3160.8152   31.9333  600.0000    9.8145    1.6859 6764.4120   57.6372 5152.6074  261.4782  235.0000   51.2690 
10108.0000   19.1095 5208.9405   39.1074  138.6535 3151.7796   34.2142  600.0000    9.8206    1.6327 6782.3474   54.0315 5156.0227  261.5729  228.0000   50.7690 
10108.5000   19.0983 5247.2986   39.1084  138.6535 3165.6357   37.6020  600.0000    9.8030    1.5881 6794.3608   48.5865 5147.0728  261.6978  213.0000   50.2691 
10109.0000   19.0882 5412.2534   39.1168  138.6535 3166.8192   39.6483  600.0000    9.7885    2.0259 6782.3909   41.0708 5139.6998  261.8034  210.0000   49.7690 
10109.5000   19.0446 5837.3212   39.1206  138.6535 3195.8237   46.8870  600.0000    9.8318    1.9307 6818.9231   33.6074 5162.7061  261.9903  215.0000   49.2692 
10110.0000   19.0485 5916.6412   39.1119  138.6535 3172.3826   50.3218  600.0000    9.8143    1.8556 6814.5818   31.0967 5153.7720  262.1082  229.5692   48.7689 
10110.5000   19.0045 5931.2065   39.1183  138.6535 3191.2911   51.4503  600.0000    9.8229    2.2100 6695.1881   33.5991 5158.5068  262.2384  249.0000   48.2686 
10111.0000   19.0841 5560.0231   39.1188  138.9165 3198.7467   45.1211  600.0000    9.7702    1.8107 6848.5496   38.6800 5131.1140  261.7508  262.5632   47.7691 
10111.5000   19.1123 5366.8116   39.1152  139.2210 3160.0725   41.8785  600.0000    9.8042    2.0085 6810.2616   43.1759 5149.2350  261.5720  267.0000   47.2690 
10112.0000   19.1404 5281.5321   39.1222  139.5255 3132.0781   40.7878  600.0000    9.8221    2.0403 6792.7045   44.0438 5158.8672  261.3989  269.0531   46.7692 
10112.5000   19.1726 5310.0407   39.1296  139.8300 3192.3574   40.1815  600.0000    9.8040    2.1309 6822.5504   43.4752 5149.6235  261.4274  257.6687   46.2690 
10113.0000   19.1183 5501.3323   39.1295  140.1345 3172.1627   44.9493  600.0000    9.7873    1.7233 6747.1015   35.5581 5141.1066  261.5118  219.8751   45.7692 
10113.5000   19.0981 5422.2603   39.1297  140.4390 3198.9350   44.0918  600.0000    9.8040    1.8397 6814.2253   32.4842 5150.1236  261.5062  197.0000   45.2691 
10114.0000   19.0998 5309.9120   39.1305  140.7435 3151.0605   40.5671  600.0000    9.7833    2.1885 6769.3319   25.5668 5139.5035  261.4750  173.0000   44.7689 
10114.5000   19.0866 5255.6682   39.1306  141.0480 3124.4917   40.7915  600.0000    9.8168    2.0855 6798.4714   18.7011 5157.3772  261.4947  150.0000   44.2688 
10115.0000   19.0629 5302.7525   39.1341  140.8155 3179.8245   40.2719  600.0000    9.8129    1.7897 6765.3584   23.7429 5155.5628  261.5302  139.0000   43.7686 
10115.5000   19.0733 5411.9855   39.1299  140.3721 3180.8703   43.6563  600.0000    9.8130    1.8397 6858.5704   31.7742 5155.8897  261.5800  131.0000   43.2692 
10116.0000   19.0836 5432.6826   39.3513  139.9286 3203.7993   43.5261  600.0000    9.8015    1.8631 6724.0812   36.0144 5150.0924  261.3003  127.0000   42.7690 
10116.5000   19.1316 5274.2325   39.8021  139.4852 3125.5063   38.3258  600.0000    9.8027    1.7405 6828.7312   38.1115 5150.9667  260.9017  118.0000   42.2687 
10117.0000   19.1456 5128.1054   40.1075  139.0417 3121.0111   35.5629  600.0000    9.8088    1.7803 6759.4921   33.3343 5154.4270  260.8592  113.0000   41.7688 
10117.5000   19.1464 5136.0690   40.5005  138.6535 3128.4421   34.0865  600.0000    9.7586    1.8053 6840.9435   27.2812 5128.2989  260.9447  111.0000   41.2689 
10118.0000   19.0954 5215.9376   40.9419  138.6535 3158.3039   36.7883  600.0000    9.7872    1.7350 6745.3707   25.5097 5143.6105  261.1618  113.3439   40.7690 
10118.5000   19.0511 5285.6315   41.2689  138.6535 3142.4198   39.0022  600.0000    9.7598    1.8633 6711.8262   25.6402 5129.4243  261.2286  114.0000   40.2689 
10119.0000   19.0458 5344.0001   41.6568  138.6535 3157.0747   39.7260  600.0000    9.7614    1.8322 6712.9163   26.3350 5130.5195  261.2310  117.0000   39.7690 
10119.5000   19.0477 5353.6970   41.9626  138.6535 3126.9950   40.1778  600.0000    9.7561    1.7803 6624.3836   27.8647 5128.0271  261.1253  124.0000   39.2692 
10120.0000   19.1124 5222.0703   42.3364  138.6550 3178.2227   36.8733  600.0000    9.7787    1.8018 6755.5349   28.3526 5140.1211  260.9698  136.0000   38.7692 
10120.5000   19.1342 5201.3135   42.7668  139.0066 3098.6236   35.1341  600.0000    9.7697    1.6963 6772.3935   27.6453 5135.6425  260.8663  151.2972   38.2689 
10121.0000   19.1423 5232.9334   43.2003  139.3582 3127.1486   35.9057  600.0000    9.7658    2.0471 6707.5436   25.4209 5133.8829  260.6823  134.0000   37.7689 
10121.5000   19.1504 5111.9223   43.5320  139.7098 3125.2378   32.9604  600.0000    9.7632    1.7796 6740.9220   22.5106 5132.7716  260.4475  160.8367   37.2688 
10122.0000   19.0799 5290.7547   43.9181  140.0614 3099.6811   36.6437  600.0000    9.7875    1.7285 6797.7707   21.6166 5145.7864  260.6334  184.0000   36.7693 
10122.5000   19.0475 5302.9809   44.1187  140.4130 3139.7754   40.3835  600.0000    9.7823    1.9095 6686.5066   20.9722 5143.3218  260.7135  188.0000   36.2687 
10123.0000   19.0502 5297.9871   44.1169  140.7646 3171.6539   40.0467  600.0000    9.7790    1.9132 6708.9764   21.1359 5141.8131  260.9907  186.0000   35.7686 
10123.5000   19.0764 5286.6320   44.1089  141.1162 3111.7747   39.1502  600.0000    9.7853    1.9839 6681.3231   21.4222 5145.3904  261.0448  186.0000   35.2690 
10124.0000   19.1313 5158.1807   44.1071  141.1339 3120.6598   35.7174  600.0000    9.7871    1.9076 6759.9604   21.7137 5146.6006  260.5192  192.0000   34.7686 
10124.5000   19.1424 5245.9395   44.1040  141.1339 3092.3953   34.4191  600.0000    9.7639    1.9954 6748.1915   22.4698 5134.6386  260.5699  194.0000   34.2688 
