~V
VERS  .       2.0                       : 
WRAP  .       NO                        : 
~W
STRT  .ft     6500.0000                 : 
STOP  .ft     15497.5000                : 
STEP  .ft        0.5000                 : 
NULL  .       -999.0000                 : 
COMP  .       Oxy                       : 
WELL  .       University 20-26 #1H      : 
FLD   .       Bone Spring               : 
LOC   .       Wink                      : 
SRVC  .       Scientific Drilling       : 
DATE  .       01/05/2009                : 
CNTY  .       Winkler County            : 
STAT  .       Texas                     : 
CTRY  .       United States             : 
API   .       42-495-33311              : 
~C
MD    .ft                               : Measured Depth
Weight-on-Bit(surf,avg).kip                              : 
TopDrvTorque.kip-ft                           : 
TopDrvSpeed.rpm                              : 
Temperature.degF                             : 
StandpipePressure.psi                              : 
ROP(MWD).ft/hr                            : 
MudFlowIn.gal/min                           : 
MergedcurvefromECD,ECDofLogAnnulusPress,ECDofLogAnnulusPress(MWD).lb/gal                           : 
LogRMSVibrations.G                                : 
LogPipePress.psi                              : 
LogGammaRay.aapi                             : 
LogAnnulusPress.psi                              : 
HookLoad(MWD).lbf                              : 
Gas(avg).%                                : 
BlockPosition(MWD).ft                               : 
~P
~O
~A
# ...
10700.0000   22.7702 4817.7867   44.1366  123.7717 3301.3024   19.6797  584.0000    9.8574    2.1761 6778.7455   27.3994 5478.2237  261.7960  183.0000   23.3545 
10700.5000   23.0467 4890.8754   44.1369  123.7717 3256.1190   19.8961  584.0000    9.8364    1.7111 6788.7730   33.1505 5466.8254  261.6009  196.0000   22.8541 
10701.0000   23.1557 4958.9534   44.1352  123.7717 3308.5990   19.5612  584.0000    9.8140    1.8483 6793.8720   38.9015 5454.6521  261.4238  219.0000   22.3543 
10701.5000   23.1263 4975.7395   44.1320  124.1994 3290.2311   19.4390  584.0000    9.8231    2.3352 6822.7662   44.6526 5459.9575  261.4437  225.0000   21.8542 
10702.0000   23.1278 4901.6468   44.1250  124.7034 3283.3712   19.3657  584.0000    9.8301    2.0851 6816.3425   50.4036 5464.1016  261.5594  220.0000   21.3544 
10702.5000   23.1258 4856.7064   44.1190  125.2074 3303.7165   19.3720  584.0000    9.8456    2.7762 6806.2970   53.1788 5472.9859  261.4784  235.0000   20.8540 
10703.0000   23.1162 4831.1921   44.1234  125.7114 3290.6239   19.6314  584.0000    9.8423    2.9563 6763.1207   41.9560 5471.3938  261.5687  250.0000   20.3541 
10703.5000   23.1100 4795.2498   44.1243  126.2154 3294.6019   19.8745  584.0000    9.8610    2.2750 6787.6080   30.7333 5482.0546  261.5985  237.5063   19.8544 
10704.0000   23.1196 4855.5023   44.1221  126.2520 3327.7037   20.4699  584.0000    9.8512    2.8953 6825.1787   23.6269 5476.8658  261.6135  249.0000   19.3543 
10704.5000   23.1140 4950.9827   44.1262  126.2520 3304.4416   23.3236  584.0000    9.8689    2.8831 6783.5033   24.1977 5486.9327  261.7708  260.0201   18.8545 
10705.0000   23.1414 4968.3268   44.1263  126.2520 3328.7217   24.0662  584.0000    9.8833    3.1668 6847.0813   24.9089 5495.2047  261.7227  230.0000   18.3541 
10705.5000   23.1587 4993.5097   44.1229  126.2520 3333.6997   23.9163  584.0000    9.8642    3.0292 6855.1643   25.7614 5484.8229  261.5772  212.0000   17.8544 
10706.0000   23.1363 5080.6053   44.1260  126.2520 3272.7532   25.1948  584.0000    9.8822    2.1172 6795.2124   28.0422 5495.1278  261.7031  205.4636   17.3545 
10706.5000   23.1461 4997.2987   44.1312  126.2520 3301.1141   22.2388  584.0000    9.8908    1.7360 6819.4787   33.3494 5500.1177  261.7693  294.0000   16.8540 
10707.0000   23.1513 5075.6350   44.1343  126.2520 3306.9196   21.8687  584.0000    9.9019    1.7978 6849.0769   37.6656 5506.5545  261.7993  337.0000   16.3541 
10707.5000   23.1559 5055.1486   44.1342  126.2520 3312.4633   22.3751  584.0000    9.9069    1.8345 6839.7666   44.3361 5509.5956  261.9652  377.0000   15.8545 
10708.0000   23.1797 4949.2955   44.1447  126.2520 3316.7228   20.9747  584.0000    9.9341    1.7240 6867.2427   50.9107 5525.0154  261.8708  401.0000   15.3540 
10708.5000   23.1690 5102.9402   44.1427  126.2520 3280.3176   24.5125  584.0000    9.9213    1.7785 6845.4355   51.8489 5518.1210  262.0017  371.0000   14.8544 
10709.0000   23.0580 5279.9374   44.1493  126.2520 3346.6390   31.2870  584.0000    9.9371    2.1326 6896.7891   56.9936 5527.1705  262.2402  313.0000   14.3542 
10709.5000   22.9314 5518.4257   44.1472  126.2520 3406.5283   38.8737  584.0000    9.9107    1.7694 6868.2116   55.3259 5512.7377  262.3965  298.0000   13.8543 
10710.0000   22.8321 6027.9450   44.1493  126.2520 3396.4384   49.0186  584.0000    9.8866    1.7070 6903.6675   51.1280 5499.5820  262.7899  268.0000   13.3539 
10710.5000   22.8897 5839.0691   44.1519  126.2520 3367.3020   46.6100  584.0000    9.8750    1.5772 6859.4926   50.5468 5493.4106  262.6338  260.0000   12.8539 
10711.0000   23.0021 5586.6654   44.1538  126.2520 3384.9593   38.3097  584.0000    9.8764    1.4173 6851.8605   52.3260 5494.4524  262.3137  252.0000   12.3544 
10711.5000   23.1141 5452.1184   44.1564  126.2520 3271.1273   32.8246  584.0000    9.8654    1.4415 6877.3664   69.6515 5488.5526  262.0628  256.0000   11.8542 
10712.0000   23.1636 5127.9638   44.1538  126.2520 3331.4273   26.3768  584.0000    9.8625    1.5327 6826.7522  100.4962 5487.2011  261.8849  275.0000   11.3541 
10712.5000   23.1893 4963.3074   44.1505  126.2520 3291.8571   21.9271  584.0000    9.8596    1.5115 6879.9520  120.6474 5485.8893  261.7117  307.0000   10.8541 
10713.0000   23.2018 5017.7124   44.1509  126.2520 3285.1632   24.2097  584.0000    9.8542    1.6439 6772.0672  141.4443 5483.1111  261.7973  330.0000   10.3545 
10713.5000   23.1814 4903.7877   44.1569  126.2520 3362.4939   21.4817  584.0000    9.8460    1.5605 6843.1622  140.1839 5478.8128  261.9390  331.0000    9.8541 
10714.0000   23.1397 4961.4865   44.1562  126.2520 3294.5300   22.0188  584.0000    9.8573    1.7812 6790.6713  105.9029 5485.3698  261.7808  305.0000    9.3540 
10714.5000   23.1054 4898.8706   44.1501  126.8609 3314.7829   21.6613  584.0000    9.8510    2.7876 6790.6816   83.9472 5482.1240  261.5597  246.0000    8.8541 
10715.0000   23.0967 4836.2701   44.1552  127.6109 3297.7685   20.8240  584.0000    9.8412    2.8071 6785.2066   56.9677 5476.9027  261.6289  209.0000    8.3540 
10715.5000   23.0923 4847.6124   44.1572  128.3608 3310.6520   21.4042  584.0000    9.8675    3.2824 6827.1166   50.8993 5491.7951  261.4967  199.0000    7.8545 
10716.0000   23.0875 5026.1060   44.1577  128.7323 3284.4507   24.8321  584.0000    9.8416    2.5908 6860.2478   56.8860 5477.6638  261.6125  195.0000    7.3545 
10716.5000   23.0973 5165.6398   44.1578  128.7323 3376.9362   24.8202  584.0000    9.8642    3.0939 6819.9734   58.7167 5490.4821  261.9736  195.0000    6.8540 
10717.0000   23.1071 5117.6247   44.1579  128.7323 3288.8888   23.6072  584.0000    9.8713    3.0854 6808.8774   58.6601 5494.7065  261.9129  197.0000    6.3544 
10717.5000   23.0998 5067.1723   44.1626  128.7323 3318.2368   23.2878  584.0000    9.8705    3.2513 6823.0565   57.4683 5494.4852  261.8209  196.0000    5.8543 
10718.0000   23.1110 4939.9279   44.1593  128.7323 3299.5528   20.8759  584.0000    9.8715    2.3739 6789.2933   60.2336 5495.3278  261.9652  189.0000    5.3544 
10718.5000   23.1149 4882.2937   44.1620  128.7323 3312.2030   21.6342  584.0000    9.8633    1.8417 6906.9474   72.2982 5490.9739  261.8783  178.0000    4.8540 
10719.0000   23.0926 4955.2941   44.1649  128.7323 3311.5417   24.0718  584.0000    9.9060    1.7116 6840.7719   75.2500 5515.0500  261.9201  173.0000    4.3541 
10719.5000   23.0809 5054.1399   44.1614  128.7323 3324.8225   26.8916  584.0000    9.8925    2.2436 6842.6659   71.8566 5507.7683  262.1116  169.0000    3.8541 
10720.0000   23.0616 5082.8672   44.1625  128.7323 3337.5305   26.4277  584.0000    9.8828    1.9867 6846.2713   62.3971 5502.6462  262.0997  171.0000    3.3542 
10720.5000   23.0395 5232.4115   44.1624  128.7323 3299.7238   28.3368  584.0000    9.8725    2.9123 6815.5603   45.8272 5497.1288  262.2240  168.0000    2.8544 
10721.0000   23.0346 5199.6429   44.1607  128.7323 3316.6659   26.5994  584.0000    9.9073    2.6347 6904.3738   33.9917 5516.7964  262.1869  169.0000    2.3541 
10721.5000   23.0485 5194.6043   44.1546  128.7323 3336.8846   25.0235  584.0000    9.9204    3.1195 6850.7369   34.3140 5524.3076  262.2444  183.0000    1.8545 
10722.0000   23.0473 5120.0829   44.1505  128.7323 3328.7167   24.5679  584.0000    9.9200    2.6780 6822.2289   40.4379 5524.3824  262.1751  196.0000    1.3540 
10722.5000   23.0678 5000.1171   44.1475  128.7323 3295.9999   23.4180  584.0000    9.9130    2.7036 6840.3905   46.9843 5520.7113  262.0274  225.0000    0.8543 
10723.0000   23.0809 4849.8956   44.1508  128.7323 3354.0611   21.7341  584.0000    9.8943    2.1980 6857.2131   52.7923 5510.5901  261.8726  252.0000    0.3540 
10723.5000   22.9066 4743.3841   44.1483  128.7323 3292.9979   19.2167  584.0000    9.9060    2.3426 6899.2851   54.5170 5517.3441  262.1456  225.0000   -0.1455 
10724.0000   22.9261 4780.3496   44.1484  129.7151 3254.6546   19.7484  584.0000    9.9146    1.9753 6879.2062   53.6442 5522.3805  262.2960  216.0000   -0.6459 
10724.5000   22.9403 4802.0805   44.1426  130.7091 3329.4584   19.3389  584.0000    9.9295    2.0519 6857.6105   52.8231 5530.9356  262.5718  200.0000   90.5498 
