~V
VERS  .       2.0                       : 
WRAP  .       NO                        : 
~W
STRT  .ft     6500.0000                 : 
STOP  .ft     15497.5000                : 
STEP  .ft        0.5000                 : 
NULL  .       -999.0000                 : 
COMP  .       Oxy                       : 
WELL  .       University 20-26 #1H      : 
FLD   .       Bone Spring               : 
LOC   .       Wink                      : 
SRVC  .       Scientific Drilling       : 
DATE  .       01/05/2009                : 
CNTY  .       Winkler County            : 
STAT  .       Texas                     : 
CTRY  .       United States             : 
API   .       42-495-33311              : 
~C
MD    .ft                               : Measured Depth
Weight-on-Bit(surf,avg).kip                              : 
TopDrvTorque.kip-ft                           : 
TopDrvSpeed.rpm                              : 
Temperature.degF                             : 
StandpipePressure.psi                              : 
ROP(MWD).ft/hr                            : 
MudFlowIn.gal/min                           : 
MergedcurvefromECD,ECDofLogAnnulusPress,ECDofLogAnnulusPress(MWD).lb/gal                           : 
LogRMSVibrations.G                                : 
LogPipePress.psi                              : 
LogGammaRay.aapi                             : 
LogAnnulusPress.psi                              : 
HookLoad(MWD).lbf                              : 
Gas(avg).%                                : 
BlockPosition(MWD).ft                               : 
~P
~O
~A
# ...
12475.0000    7.0799 3184.2457   39.0891  163.4567 4130.5175   51.6084  282.5916   12.9854    1.7274 8043.0491  139.6479 7826.3418  639.2730 1310.1740    6.4716 
12475.5000    6.9173 3185.2532   39.0797  163.4567 4119.9351   49.4375  282.5714   12.9854    1.7326 8042.9241  145.7882 7826.3048  639.2216 1314.2698    5.9985 
12476.0000    6.8224 3178.9802   39.0789  163.4567 4107.6409   48.4016  282.6576   12.9851    1.6308 8043.1712  138.4153 7826.1599  639.0702 1320.3914    5.5105 
12476.5000    6.7679 3162.7127   39.0817  163.4567 4102.2616   47.9226  282.6458   12.9853    1.5986 8043.2300  137.5815 7826.2615  638.9685 1321.6042    5.0108 
12477.0000    6.7411 3160.0366   39.0753  163.4567 4099.0807   47.8956  282.6454   12.9854    1.6904 8042.5924  143.0577 7826.2990  639.0129 1327.6900    4.5093 
12477.5000    6.7227 3147.0303   39.0716  163.4567 4096.0930   47.8304  282.6132   12.9851    1.7185 8042.9607  147.4022 7826.1446  639.1165 1336.3342    4.0108 
12478.0000    6.7005 3135.5219   39.0751  163.4567 4096.4240   47.8344  282.6258   12.9851    1.6477 8042.8498  144.2611 7826.1348  639.0905 1342.2621    3.5116 
12478.5000    6.8269 3127.3764   39.0715  163.4567 4096.4820   47.7939  282.6243   12.9851    1.5669 8043.0892  139.7972 7826.1700  639.0969 1348.7039    3.0112 
12479.0000    7.1284 3111.1621   39.0613  163.4567 4096.3634   47.8028  282.6954   12.9850    1.6751 8042.7238  140.7471 7826.1147  638.9216 1346.7812    2.5109 
12479.5000    7.3395 3108.6846   39.0623  163.4567 4098.2888   47.8493  282.7189   12.9854    1.5645 8042.6840  143.8865 7826.3273  638.7056 1345.5927    2.2347 
12480.0000    7.6567 3106.4841   39.0638  163.4567 4098.0157   47.8090  282.7024   12.9852    1.6754 8042.5305  142.7502 7826.2123  638.5521 1344.3341    1.9865 
12480.5000    7.6463 3103.0963   39.0649  163.4567 4099.8073   47.7271  282.6965   12.9852    1.5025 8042.5908  143.9183 7826.2307  638.4679 1339.4809    2.8624 
12481.0000    7.6025 3099.7774   39.0654  163.4567 4101.3253   47.6427  282.6914   12.9853    1.5858 8042.4859  148.7922 7826.2629  638.4083 1334.4442    3.8187 
12481.5000    7.5588 3096.4584   39.0658  163.4567 4102.8433   47.5582  282.6862   12.9852    1.4742 8042.7316  148.0219 7826.2201  638.3488 1329.4075    4.7750 
12482.0000    7.5150 3093.1395   39.0663  163.4567 4104.3613   47.4737  282.6811   12.9852    1.6198 8042.6249  147.1505 7826.2137  638.2892 1324.3708    5.7313 
12482.5000    7.4712 3089.8205   39.0668  163.4567 4105.8793   47.3893  282.6759   12.9851    1.7466 8042.7030  144.9467 7826.1765  638.2296 1319.3342    6.6876 
12483.0000    7.4275 3086.5016   39.0672  163.4567 4107.3973   47.3048  282.6708   12.9852    1.2291 8042.4494  143.8795 7826.2026  638.1701 1314.2975    7.6439 
12483.5000    7.3837 3083.1826   39.0677  163.4567 4108.9153   47.2204  282.6656   12.9852    1.6723 8042.4287  141.9615 7826.2052  638.1105 1309.2608    8.6002 
12484.0000    7.3400 3079.8637   39.0681  163.4567 4110.4333   47.1359  282.6605   12.9850    1.6717 8042.6700  138.9409 7826.1223  638.0510 1304.2241    9.5565 
12484.5000    7.2962 3076.5447   39.0686  163.4567 4111.9513   47.0515  282.6553   12.9848    1.7453 8042.3197  147.3797 7825.9555  637.9914 1299.1875   10.5128 
12485.0000    7.2524 3073.2258   39.0690  163.4567 4113.4693   46.9670  282.6502   12.9847    1.6770 8042.3709  147.0285 7825.9346  637.9319 1294.1508   11.4692 
12485.5000    7.2087 3069.9068   39.0695  163.4567 4114.9873   46.8825  282.6450   12.9848    1.5817 8042.4041  136.8480 7825.9996  637.8723 1289.1141   12.4255 
12486.0000    7.1649 3066.5879   39.0699  163.4567 4116.5053   46.7981  282.6399   12.9849    1.4781 8042.4215  141.6420 7826.0338  637.8128 1284.0774   13.3818 
12486.5000    7.1212 3063.2689   39.0704  163.4567 4118.0233   46.7136  282.6347   12.9848    1.5708 8042.2000  137.6539 7825.9756  637.7532 1279.0408   14.3381 
12487.0000    7.0774 3059.9500   39.0708  163.4567 4119.5413   46.6292  282.6296   12.9847    1.7182 8042.3581  143.7110 7825.9059  637.6937 1274.0041   15.2944 
12487.5000    7.0337 3056.6310   39.0713  163.4567 4121.0593   46.5447  282.6244   12.9846    1.6313 8042.2122  139.8452 7825.8653  637.6341 1268.9674   16.2507 
12488.0000    6.9899 3053.3121   39.0717  163.4567 4122.5773   46.4602  282.6193   12.9845    1.8012 8042.6183  143.2990 7825.7875  637.5746 1263.9307   17.2070 
12488.5000    6.9461 3049.9931   39.0722  163.4567 4124.0953   46.3758  282.6142   12.9847    1.6914 8042.1018  146.3686 7825.9375  637.5150 1258.8941   18.1633 
12489.0000    6.9024 3046.6742   39.0726  163.4567 4125.6133   46.2913  282.6090   12.9847    1.6665 8042.1345  140.5425 7825.9193  637.4555 1253.8574   19.1196 
12489.5000    6.8586 3043.3552   39.0731  163.4567 4127.1313   46.2069  282.6039   12.9846    1.6787 8042.2549  144.3629 7825.8562  637.3959 1248.8207   20.0760 
12490.0000    6.8149 3040.0363   39.0736  163.4567 4128.6493   46.1224  282.5987   12.9844    1.2523 8042.0039  140.6122 7825.7787  637.3364 1243.7840   21.0323 
12490.5000    6.7711 3036.7173   39.0740  163.4567 4130.1673   46.0380  282.5936   12.9849    1.6701 8042.4463  143.0670 7826.0628  637.2768 1238.7474   21.9886 
12491.0000    6.7273 3033.3984   39.0745  163.4567 4131.6853   45.9535  282.5884   12.9847    1.7274 8042.0809  146.8137 7825.9383  637.2173 1233.7107   22.9449 
12491.5000    6.6836 3030.0794   39.0749  163.4567 4133.2033   45.8690  282.5833   12.9846    1.3184 8042.5833  144.2412 7825.8783  637.1577 1228.6740   23.9012 
12492.0000    6.6398 3026.7605   39.0754  163.4567 4134.7213   45.7846  282.5781   12.9847    1.7211 8042.3034  147.2643 7825.9404  637.0982 1223.6373   24.8575 
12492.5000    6.5961 3023.4415   39.0758  163.4567 4136.2393   45.7001  282.5730   12.9845    1.7294 8042.7554  140.9571 7825.7833  637.0386 1218.6007   25.8138 
12493.0000    6.5523 3020.1226   39.0763  163.4567 4137.7573   45.6157  282.5678   12.9848    1.8115 8042.4162  148.0515 7826.0229  636.9790 1213.5640   26.7701 
12493.5000    6.5085 3016.8036   39.0767  163.4567 4139.2753   45.5312  282.5627   12.9851    1.5710 8042.2033  142.3179 7826.1527  636.9195 1208.5273   27.7264 
12494.0000    6.4648 3013.4847   39.0772  163.4567 4140.7933   45.4468  282.5575   12.9846    1.7171 8041.9560  140.8402 7825.8882  636.8599 1203.4906   28.6828 
12494.5000    6.4210 3010.1657   39.0776  163.4567 4142.3113   45.3623  282.5524   12.9845    1.8382 8042.0873  140.1182 7825.8194  636.8004 1198.4540   29.6391 
12495.0000    6.3773 3006.8468   39.0781  163.4567 4143.8293   45.2778  282.5472   12.9845    1.7472 8042.4568  144.3608 7825.8126  636.7408 1193.4173   30.5954 
12495.5000    6.3335 3003.5278   39.0785  163.4567 4145.3473   45.1934  282.5421   12.9844    1.7532 8041.9602  150.1494 7825.7557  636.6813 1188.3806   31.5517 
12496.0000    6.2897 3000.2089   39.0790  163.4567 4146.8653   45.1089  282.5369   12.9845    1.7106 8042.2522  141.8967 7825.7973  636.6217 1183.3439   32.5080 
12496.5000    6.2460 2996.8899   39.0795  163.4567 4148.3833   45.0245  282.5318   12.9843    1.6757 8042.1543  141.6516 7825.7280  636.5622 1178.3073   33.4643 
12497.0000    6.2022 2993.5710   39.0799  163.4567 4149.9013   44.9400  282.5266   12.9842    1.6758 8042.0173  140.0279 7825.6613  636.5026 1173.2706   34.4206 
12497.5000    6.1585 2990.2520   39.0804  163.4567 4151.4193   44.8556  282.5215   12.9846    1.4532 8042.0629  141.6443 7825.8527  636.4431 1168.2339   35.3769 
12498.0000    6.1147 2986.9331   39.0808  163.4567 4152.9373   44.7711  282.5164   12.9843    1.6120 8041.7045  145.4999 7825.6758  636.3835 1163.1973   36.3332 
12498.5000    6.0709 2983.6141   39.0813  163.4567 4154.4553   44.6866  282.5112   12.9842    1.6156 8041.7131  145.7446 7825.6672  636.3240 1158.1606   37.2896 
12499.0000    6.0272 2980.2952   39.0817  163.4567 4155.9733   44.6022  282.5061   12.9844    1.7413 8042.3340  141.8043 7825.7328  636.2644 1153.1239   38.2459 
12499.5000    5.9834 2976.9762   39.0822  163.4567 4157.4913   44.5177  282.5009   12.9844    1.6987 8042.0534  140.4784 7825.7458  636.2049 1148.0872   39.2022 
