~V
VERS  .       2.0                       : 
WRAP  .       NO                        : 
~W
STRT  .ft     6500.0000                 : 
STOP  .ft     15497.5000                : 
STEP  .ft        0.5000                 : 
NULL  .       -999.0000                 : 
COMP  .       Oxy                       : 
WELL  .       University 20-26 #1H      : 
FLD   .       Bone Spring               : 
LOC   .       Wink                      : 
SRVC  .       Scientific Drilling       : 
DATE  .       01/05/2009                : 
CNTY  .       Winkler County            : 
STAT  .       Texas                     : 
CTRY  .       United States             : 
API   .       42-495-33311              : 
~C
MD    .ft                               : Measured Depth
Weight-on-Bit(surf,avg).kip                              : 
TopDrvTorque.kip-ft                           : 
TopDrvSpeed.rpm                              : 
Temperature.degF                             : 
StandpipePressure.psi                              : 
ROP(MWD).ft/hr                            : 
MudFlowIn.gal/min                           : 
MergedcurvefromECD,ECDofLogAnnulusPress,ECDofLogAnnulusPress(MWD).lb/gal                           : 
LogRMSVibrations.G                                : 
LogPipePress.psi                              : 
LogGammaRay.aapi                             : 
LogAnnulusPress.psi                              : 
HookLoad(MWD).lbf                              : 
Gas(avg).%                                : 
BlockPosition(MWD).ft                               : 
~P
~O
~A
# ...
15475.0000    2.7830 4613.7912   39.0881 -999.0000 4246.0764   39.7055  272.0825 -999.0000 -999.0000 -999.0000 -999.0000 -999.0000  219.8166  566.8364   52.4006 
15475.5000    2.7794 4694.6230   39.0911 -999.0000 4248.6952   39.6970  272.0605 -999.0000 -999.0000 -999.0000 -999.0000 -999.0000  219.7401  566.8395   51.9027 
15476.0000    2.7564 4786.5103   39.0906 -999.0000 4240.3233   39.7612  272.0608 -999.0000 -999.0000 -999.0000 -999.0000 -999.0000  219.6354  567.3763   51.4062 
15476.5000    2.8010 4776.6929   39.0932 -999.0000 4234.4966   39.7292  272.0935 -999.0000 -999.0000 -999.0000 -999.0000 -999.0000  219.5717  568.6909   50.9059 
15477.0000    2.7688 4754.8988   39.0958 -999.0000 4233.0638   39.7707  272.0884 -999.0000 -999.0000 -999.0000 -999.0000 -999.0000  219.5244  571.0060   50.4025 
15477.5000    2.6972 4747.0270   39.1043 -999.0000 4236.7452   39.7520  272.0497 -999.0000 -999.0000 -999.0000 -999.0000 -999.0000  219.6292  572.7366   49.9020 
15478.0000    2.6862 4721.3118   39.1025 -999.0000 4242.7476   39.7376  272.0221 -999.0000 -999.0000 -999.0000 -999.0000 -999.0000  219.7910  572.9020   49.4022 
15478.5000    2.7062 4702.9407   39.1128 -999.0000 4248.5445   39.7425  271.9945 -999.0000 -999.0000 -999.0000 -999.0000 -999.0000  219.7925  571.6189   48.8971 
15479.0000    2.7705 4689.1931   39.1100 -999.0000 4247.6009   39.7142  272.0166 -999.0000 -999.0000 -999.0000 -999.0000 -999.0000  219.7953  569.5711   48.3980 
15479.5000    2.8173 4662.5441   39.1078 -999.0000 4247.1602   39.7000  272.0555 -999.0000 -999.0000 -999.0000 -999.0000 -999.0000  219.7587  567.9596   47.9017 
15480.0000    2.7455 4633.6236   39.1061 -999.0000 4243.5430   39.6822  272.0829 -999.0000 -999.0000 -999.0000 -999.0000 -999.0000  219.7543  567.5741   47.4085 
15480.5000    2.5975 4605.1825   39.0994 -999.0000 4243.0936   39.7008  272.0937 -999.0000 -999.0000 -999.0000 -999.0000 -999.0000  219.8996  568.0772   46.9048 
15481.0000    2.4817 4574.9559   39.0909 -999.0000 4242.2942   39.6737  272.0883 -999.0000 -999.0000 -999.0000 -999.0000 -999.0000  219.9215  568.6665   46.3979 
15481.5000    2.4199 4558.2749   39.0859 -999.0000 4236.1472   39.7510  272.0720 -999.0000 -999.0000 -999.0000 -999.0000 -999.0000  219.9180  569.1072   45.9006 
15482.0000    2.4426 4551.1564   39.0825 -999.0000 4238.5287   39.7365  272.0609 -999.0000 -999.0000 -999.0000 -999.0000 -999.0000  219.8910  568.5931   45.4066 
15482.5000    2.4462 4522.1000   39.0808 -999.0000 4237.5772   39.7775  272.0778 -999.0000 -999.0000 -999.0000 -999.0000 -999.0000  219.8506  567.9801   44.9015 
15483.0000    2.3644 4502.8102   39.0807 -999.0000 4235.6895   39.7409  272.1000 -999.0000 -999.0000 -999.0000 -999.0000 -999.0000  219.9337  567.7340   44.4021 
15483.5000    2.2116 4474.3137   39.0759 -999.0000 4236.3197   39.7443  272.1050 -999.0000 -999.0000 -999.0000 -999.0000 -999.0000  219.9763  567.9701   43.9031 
15484.0000    2.0254 4466.6159   39.0629 -999.0000 4234.4020   39.7194  272.1153 -999.0000 -999.0000 -999.0000 -999.0000 -999.0000  220.1208  568.6687   43.3970 
15484.5000    1.9677 4450.8656   39.0623 -999.0000 4233.5107   39.7218  272.1050 -999.0000 -999.0000 -999.0000 -999.0000 -999.0000  220.1643  568.8027   42.8984 
15485.0000    2.0160 4432.4977   39.0674 -999.0000 4233.4794   39.7278  272.0221 -999.0000 -999.0000 -999.0000 -999.0000 -999.0000  220.0905  568.5359   42.4032 
15485.5000    2.1622 4425.2619   39.0639 -999.0000 4230.9887   39.7186  272.0332 -999.0000 -999.0000 -999.0000 -999.0000 -999.0000  219.9968  568.7272   41.9075 
15486.0000    2.3392 4410.7324   39.0622 -999.0000 4231.0432   39.7657  271.9945 -999.0000 -999.0000 -999.0000 -999.0000 -999.0000  219.9116  569.8557   41.4026 
15486.5000    2.4304 4409.4005   39.0655 -999.0000 4231.3098   39.7188  271.9779 -999.0000 -999.0000 -999.0000 -999.0000 -999.0000  219.8649  571.0389   40.9001 
15487.0000    2.4315 4413.1530   39.0689 -999.0000 4234.8086   39.7861  272.0222 -999.0000 -999.0000 -999.0000 -999.0000 -999.0000  219.8904  571.5812   40.4015 
15487.5000    2.3743 4407.5599   39.0690 -999.0000 4239.5233   39.7013  272.0000 -999.0000 -999.0000 -999.0000 -999.0000 -999.0000  220.0292  570.5862   39.9015 
15488.0000    2.3519 4409.5108   39.0772 -999.0000 4240.2719   39.7316  272.0055 -999.0000 -999.0000 -999.0000 -999.0000 -999.0000  219.9915  567.8785   39.3979 
15488.5000    2.3556 4400.8896   39.0824 -999.0000 4238.7532   39.6811  272.0387 -999.0000 -999.0000 -999.0000 -999.0000 -999.0000  219.8666  564.8736   38.8997 
15489.0000    2.3590 4393.6841   39.0841 -999.0000 4232.5583   39.6748  272.0552 -999.0000 -999.0000 -999.0000 -999.0000 -999.0000  219.8588  561.8400   38.4081 
15489.5000    2.3247 4388.0043   39.0841 -999.0000 4230.0423   39.6808  272.0442 -999.0000 -999.0000 -999.0000 -999.0000 -999.0000  219.8948  559.3213   37.9024 
15490.0000    2.1947 4381.1329   39.0857 -999.0000 4226.8704   39.6437  272.0336 -999.0000 -999.0000 -999.0000 -999.0000 -999.0000  219.9154  557.6197   37.3988 
15490.5000    2.0125 4370.3852   39.0908 -999.0000 4223.3231   39.7488  272.0387 -999.0000 -999.0000 -999.0000 -999.0000 -999.0000  219.9827  556.5538   36.9019 
15491.0000    1.9078 4351.8843   39.0874 -999.0000 4224.4837   39.6902  272.0111 -999.0000 -999.0000 -999.0000 -999.0000 -999.0000  219.9724  556.2211   36.4035 
15491.5000    1.8976 4342.9901   39.0756 -999.0000 4224.0835   39.7577  272.0111 -999.0000 -999.0000 -999.0000 -999.0000 -999.0000  219.9058  556.1142   35.8971 
15492.0000    1.9697 4328.5870   39.0739 -999.0000 4224.5179   39.7326  272.0608 -999.0000 -999.0000 -999.0000 -999.0000 -999.0000  219.8311  556.3801   35.4047 
15492.5000    2.0896 4324.8725   39.0739 -999.0000 4227.9268   39.7206  272.0276 -999.0000 -999.0000 -999.0000 -999.0000 -999.0000  219.8960  556.3082   34.9066 
15493.0000    2.1320 4305.2920   39.0741 -999.0000 4230.7300   39.7145  272.0884 -999.0000 -999.0000 -999.0000 -999.0000 -999.0000  219.9684  556.1989   34.4018 
15493.5000    2.1008 4297.6680   39.0690 -999.0000 4229.9591   39.7256  272.0884 -999.0000 -999.0000 -999.0000 -999.0000 -999.0000  219.9472  556.0544   33.9026 
15494.0000    2.0122 4292.4948   39.0622 -999.0000 4227.9601   39.7045  272.0442 -999.0000 -999.0000 -999.0000 -999.0000 -999.0000  220.0044  555.0558   33.3961 
15494.5000    1.9325 4287.9448   39.0571 -999.0000 4226.4810   39.6757  272.0774 -999.0000 -999.0000 -999.0000 -999.0000 -999.0000  219.9240  553.3661   32.8974 
15495.0000    1.9476 4287.9070   39.0465 -999.0000 4225.0041   39.7062  272.0663 -999.0000 -999.0000 -999.0000 -999.0000 -999.0000  219.8674  550.5331   32.4014 
15495.5000    1.9900 4287.6544   39.0486 -999.0000 4223.6844   39.6635  272.0829 -999.0000 -999.0000 -999.0000 -999.0000 -999.0000  219.8766  545.9618   31.9037 
15496.0000    2.0326 4280.4140   39.0491 -999.0000 4225.1140   39.7023  272.1160 -999.0000 -999.0000 -999.0000 -999.0000 -999.0000  219.8585  540.0951   31.4048 
15496.5000    2.0411 4266.2611   39.0496 -999.0000 4223.3427   39.6750  272.1105 -999.0000 -999.0000 -999.0000 -999.0000 -999.0000  219.8137  533.6763   30.9009 
15497.0000    2.0359 4266.2078   39.0450 -999.0000 4222.5307   39.6937  272.1055 -999.0000 -999.0000 -999.0000 -999.0000 -999.0000  219.7943  527.4826   30.4521 
15497.5000    2.0251 4275.0235   39.0421 -999.0000 4223.2552   39.6909  272.1196 -999.0000 -999.0000 -999.0000 -999.0000 -999.0000  219.7460  523.8566   30.2056 
