~V
VERS  .       2.0                       : 
WRAP  .       NO                        : 
~W
STRT  .ft     6500.0000                 : 
STOP  .ft     15497.5000                : 
STEP  .ft        0.5000                 : 
NULL  .       -999.0000                 : 
COMP  .       Oxy                       : 
WELL  .       University 20-26 #1H      : 
FLD   .       Bone Spring               : 
LOC   .       Wink                      : 
SRVC  .       Scientific Drilling       : 
DATE  .       01/05/2009                : 
CNTY  .       Winkler County            : 
STAT  .       Texas                     : 
CTRY  .       United States             : 
API   .       42-495-33311              : 
~C
MD    .ft                               : Measured Depth
Weight-on-Bit(surf,avg).kip                              : 
TopDrvTorque.kip-ft                           : 
TopDrvSpeed.rpm                              : 
Temperature.degF                             : 
StandpipePressure.psi                              : 
ROP(MWD).ft/hr                            : 
MudFlowIn.gal/min                           : 
MergedcurvefromECD,ECDofLogAnnulusPress,ECDofLogAnnulusPress(MWD).lb/gal                           : 
LogRMSVibrations.G                                : 
LogPipePress.psi                              : 
LogGammaRay.aapi                             : 
LogAnnulusPress.psi                              : 
HookLoad(MWD).lbf                              : 
Gas(avg).%                                : 
BlockPosition(MWD).ft                               : 
~P
~O
~A
# ...
9500.0000   35.1968 4138.7141   39.0000  148.5748 2662.1226    0.0000  600.0000    9.3658    4.6984 5907.7443   33.5066 4621.6737 223875.9962   17.0000   86.9000 
9500.5000   35.9013 4169.2755   39.0000  148.5748 2636.9032    0.0000  600.0000    9.3429    4.9409 5874.9925   31.1209 4610.6060 223884.3407   17.0130   86.4000 
9501.0000   35.8482 4207.9917   39.4824  148.5748 2679.3625    0.0000  600.0000    9.3562    4.8642 5822.4308   28.0923 4617.4362 222523.6445   17.0000   85.9000 
9501.5000   35.9955 4259.5154   39.0000  148.5748 2658.3181    0.0000  600.0000    9.3375    5.2224 5844.4128   25.6230 4608.4535 222686.5644   18.0000   85.4000 
9502.0000   35.9323 4315.7182   39.0000  148.5748 2655.2852    0.0000  600.0000    9.3492    5.3440 5914.5866   22.6389 4614.4394 222898.4765   18.0000   84.9662 
9502.5000   35.9980 4347.8840   39.0000  148.5748 2666.2399    0.0000  600.0000    9.3600    5.3899 5841.1734   21.0747 4620.0350 222697.0283   18.0000   84.4000 
9503.0000   36.0004 4375.4493   39.0000  148.5748 2639.7118    0.0000  600.0000    9.3368    5.1423 5864.6076   20.1242 4608.8240 222100.4146   17.0014   83.9000 
9503.5000   35.9016 4408.6249   39.0164  148.5748 2642.8630    0.0000  600.0000    9.3491    5.5543 5874.2096   20.5737 4615.1461 222109.8298   19.0000   83.4000 
9504.0000   35.8000 4432.2433   39.0000  148.5748 2652.6111    0.0000  600.0000    9.3483    5.1615 5909.8546   21.6450 4614.9606 222401.3696   19.0000   82.9000 
9504.5000   36.0974 4431.5524   39.0000  148.5748 2661.0112    0.0000  600.0000    9.3579    5.6401 5918.9890   21.1416 4619.9763 222411.7567   19.0000   82.4000 
9505.0000   35.9516 4422.6983   39.0000  148.5748 2635.9538    0.0000  600.0000    9.3481    5.0743 5848.7238   20.6661 4615.3922 222419.3898   19.0000   81.9000 
9505.5000   35.9000 4423.2185   39.0000  148.5748 2669.2982    0.0000  600.0000    9.3509    5.0341 5897.5411   19.7211 4617.0069 222996.9008   20.0000   81.4990 
9506.0000   36.0000 4424.9460   39.9719  148.5748 2665.6632    0.0000  600.0000    9.3649    5.3465 5905.7442   18.1988 4624.1721 222700.0043   20.0000   80.9000 
9506.5000   35.9669 4430.8694   39.0000  148.5748 2656.3248    0.0000  600.0000    9.3795    5.6139 5859.9059   17.9679 4631.5963 222598.8765   18.0000   80.4000 
9507.0000   35.7013 4426.9362   39.9866  148.5748 2660.3964    0.0000  600.0000    9.3473    6.4530 5816.4214   18.5404 4615.9560 222112.0822   18.0000   79.9000 
9507.5000   35.9000 4415.4456   39.0022  148.5748 2660.4690    0.0000  600.0000    9.3476    4.8160 5857.3919   18.9149 4616.3131 222100.0084   17.0000   79.4000 
9508.0000   35.9000 4395.8565   39.0000  148.5748 2643.2799    0.0000  600.0000    9.3391    5.5056 5919.7423   18.8849 4612.3835 222400.0063   15.9780   78.9000 
9508.5000   36.0039 4373.0624   39.0000  148.5748 2668.7353    0.0000  600.0000    9.3510    4.2570 5885.3411   19.1010 4618.5222 222400.0063   15.0000   78.4019 
9509.0000   36.0980 4359.2648   39.0000  148.5748 2659.9186    0.0000  600.0000    9.3684    6.1276 5903.4701   18.5702 4627.3243 222705.9370   14.0000   77.9490 
9509.5000   36.0000 4349.2865   39.0000  148.5748 2654.9251    0.0000  600.0000    9.3595    5.9273 5876.0901   16.8767 4623.1803 221955.7323   14.0000   77.4000 
9510.0000   36.0000 4333.6858   39.0000  148.5748 2630.8381    0.0000  600.0000    9.3732    4.2366 5877.6852   16.4569 4630.1813 222700.0043   14.0000   76.9000 
9510.5000   35.8995 4317.6216   39.5025  148.5748 2660.0739    0.0000  600.0000    9.3522    5.1907 5846.8325   16.6805 4620.0756 223002.9591   13.0000   76.4000 
9511.0000   36.0000 4307.3071   39.9745  148.5748 2670.6135    0.0000  600.0000    9.3587    4.5035 5915.1901   16.5802 4623.5287 221545.8541   14.0000   75.9000 
9511.5000   36.0977 4306.3110   39.0000  148.5748 2663.3210    0.0000  600.0000    9.3394    4.7556 5897.9638   17.2423 4614.2063 222993.0237   15.0000   75.4000 
9512.0000   35.9000 4290.5079   39.0000  148.5748 2662.0675    0.0000  600.0000    9.3690    5.7083 5901.3505   17.6750 4629.1188 222402.9970   16.0000   74.9000 
9512.5000   35.9971 4287.2090   39.9856  148.5748 2653.7264    0.0000  600.0000    9.3533    5.1978 5869.5980   17.7562 4621.5639 222991.3623   17.0000   74.4986 
9513.0000   36.0000 4283.5829   39.4964  148.5748 2665.9531    0.0000  600.0000    9.3532    5.5844 5913.9244   17.6382 4621.7797 222397.8368   17.0000   73.9000 
9513.5000   36.1000 4274.1534   40.0000  148.5748 2661.9340    0.0000  600.0000    9.3646    5.4295 5823.7828   18.0807 4627.6556 222404.1417   19.0000   73.4000 
9514.0000   36.0000 4265.7891   39.0000  148.5748 2661.9478    0.0000  600.0000    9.3650    5.1374 5871.2446   18.7167 4628.1092 221803.5378   18.0000   72.9000 
9514.5000   35.8045 4256.1780   39.0000  148.5748 2664.0457    0.0000  600.0000    9.3327    4.9864 5844.2525   19.6054 4612.3559 222993.2439   17.0000   72.4000 
9515.0000   36.1000 4234.8639   39.0000  148.5748 2640.9076    0.0000  600.0000    9.3534    4.3896 5862.3074   20.5929 4622.8603 221811.2554   16.0000   71.9000 
9515.5000   35.9000 4213.9567   39.9802  148.5748 2665.8314    0.0000  600.0000    9.3453    4.1875 5915.8732   20.2695 4619.0683 222705.9489   17.0000   71.4020 
9516.0000   35.9994 4213.9320   39.9979  148.5748 2626.5321    0.0000  600.0000    9.3575    4.1616 5914.1864   19.7532 4625.3778 223297.4893   15.0000   70.9000 
9516.5000   36.1326 4203.2864   39.0000  148.5748 2666.5641    0.0000  600.0000    9.3045    3.6662 5867.9338   20.0819 4599.3770 221803.0812   14.0000   70.4000 
9517.0000   35.9017 4195.6652   39.0000  148.5748 2637.1689    0.0000  600.0000    9.3054    4.1704 5883.9853   20.2146 4600.1014 222105.2115   16.0000   69.9000 
9517.5000   36.1000 4196.2054   39.0000  148.5748 2667.0311    0.0000  600.0000    9.3066    3.9206 5856.6451   21.6628 4600.9176 222976.7408   17.0000   69.4000 
9518.0000   36.0016 4185.5795   39.0000  148.5748 2652.4337    0.0000  600.0000    9.2800    4.7878 5904.2671   23.7995 4588.0234 223000.0022   21.9919   68.9000 
9518.5000   36.0000 4193.0941   39.0000  148.5748 2669.6112    0.0000  600.0000    9.3065    4.0718 5802.3566   25.2195 4601.3411 222102.8883   17.0000   68.4000 
9519.0000   35.8055 4182.1526   39.0000  148.5748 2653.6387    0.0000  600.0000    9.2983    3.7261 5844.3873   26.4956 4597.5642 222683.6106   15.0000   67.9000 
9519.5000   35.9000 4178.7463   39.0000  148.5748 2661.5520    0.0000  600.0000    9.3130    3.9201 5819.2251   26.8942 4605.0479 221809.5569   17.9681   67.4000 
9520.0000   36.0014 4171.7328   39.0000  148.5748 2665.3604    0.0000  600.0000    9.3085    4.6527 5786.4155   26.0967 4603.0686 222695.7581   19.0000   66.9000 
9520.5000   35.7014 4172.7021   39.0000  148.5748 2662.5861    0.0000  600.0000    9.3099    5.1783 5872.6279   24.7900 4604.0106 221801.0641   15.0000   66.4000 
9521.0000   35.8989 4182.6359   39.0000  148.5748 2653.4999    0.0000  600.0000    9.3010    5.3130 5870.2445   25.3332 4599.8318 222990.0376   15.0111   65.9000 
9521.5000   36.0500 4203.3173   39.0000  148.5748 2657.0970    0.0000  600.0000    9.2921    5.5378 5906.9180   26.9489 4595.6799 222550.0917   17.0000   65.4500 
9522.0000   35.7000 4219.7341   39.0000  148.5748 2645.1925    0.0000  600.0000    9.3093    5.1413 5910.1247   30.1164 4604.4408 222405.7087   17.0000   64.9491 
9522.5000   35.9995 4227.9395   39.0000  148.5748 2652.9208    0.0000  600.0000    9.3273    4.4895 5860.4444   33.0207 4613.5754 222697.7888   20.0000   64.4000 
9523.0000   35.9000 4249.9492   39.0000  148.5748 2670.7667    0.0000  600.0000    9.3210    5.8172 5854.3667   31.8636 4610.7137 223000.0022   20.0000   63.9000 
9523.5000   36.0503 4266.9442   39.0000  148.5748 2655.3921    0.0000  600.0000    9.3112    4.8699 5831.1585   30.7251 4606.1040 223601.7070   20.0000   63.4000 
9524.0000   36.0921 4273.0369   39.0000  148.5748 2661.6822    0.0000  600.0000    9.3000    5.1047 5844.5447   29.1310 4600.8123 222400.0063   19.0000   62.9000 
9524.5000   36.0996 4301.7819   39.0000  148.5748 2654.6431    0.0000  600.0000    9.3320    5.5269 5876.0359   26.7309 4616.8711 222696.0298   18.0000   62.5000 
