~V
VERS  .       2.0                       : 
WRAP  .       NO                        : 
~W
STRT  .ft     6500.0000                 : 
STOP  .ft     15497.5000                : 
STEP  .ft        0.5000                 : 
NULL  .       -999.0000                 : 
COMP  .       Oxy                       : 
WELL  .       University 20-26 #1H      : 
FLD   .       Bone Spring               : 
LOC   .       Wink                      : 
SRVC  .       Scientific Drilling       : 
DATE  .       01/05/2009                : 
CNTY  .       Winkler County            : 
STAT  .       Texas                     : 
CTRY  .       United States             : 
API   .       42-495-33311              : 
~C
MD    .ft                               : Measured Depth
Weight-on-Bit(surf,avg).kip                              : 
TopDrvTorque.kip-ft                           : 
TopDrvSpeed.rpm                              : 
Temperature.degF                             : 
StandpipePressure.psi                              : 
ROP(MWD).ft/hr                            : 
MudFlowIn.gal/min                           : 
MergedcurvefromECD,ECDofLogAnnulusPress,ECDofLogAnnulusPress(MWD).lb/gal                           : 
LogRMSVibrations.G                                : 
LogPipePress.psi                              : 
LogGammaRay.aapi                             : 
LogAnnulusPress.psi                              : 
HookLoad(MWD).lbf                              : 
Gas(avg).%                                : 
BlockPosition(MWD).ft                               : 
~P
~O
~A
6500.0000   14.7623    0.0000    0.0000  116.5256 2115.5936 -999.0000  563.0000    9.5906    4.0057 4514.0690   94.3741 3238.2363 176825.5172    1.0000   68.6300 
6500.5000   14.7623    0.0000    0.0000  116.5204 2115.9913 -999.0000  563.0000    9.6665    3.9734 4496.0473   94.4447 3264.1351 176825.3346    1.0000   68.6305 
6501.0000   14.7623    0.0000    0.0000  116.5152 2116.3890 -999.0000  563.0000    9.6425    3.9411 4487.9716   94.5152 3256.2654 176825.1519    1.0000   68.6311 
6501.5000   14.7623    0.0000    0.0000  116.5100 2116.7866 -999.0000  563.0000    9.6338    3.9088 4550.3360   94.5857 3253.5750 176824.9693    1.0000   68.6316 
6502.0000   14.7623    0.0000    0.0000  116.5048 2117.1843 -999.0000  563.0000    9.6048    3.8764 4440.6682   94.6563 3244.0326 176824.7866    1.0000   68.6321 
6502.5000   14.7622    0.0000    0.0000  116.4995 2117.5820 -999.0000  563.0000    9.6440    3.8441 4541.0092   94.7268 3257.5362 176824.6040    1.0000   68.6326 
6503.0000   14.7622    0.0000    0.0000  116.4943 2117.7450 -999.0000  563.0000    9.6503    3.8118 4507.4625   94.7973 3259.9103 176824.4213    1.0000   68.6332 
6503.5000   14.7622    0.0000    0.0000  116.4891 2117.8056 -999.0000  563.0000    9.6060    3.7795 4468.9279   94.8678 3245.1761 176824.2387    1.0000   68.6337 
6504.0000   14.7622    0.0000    0.0000  116.4839 2117.8662 -999.0000  563.0000    9.6334    3.7472 4453.0004   94.9384 3254.6935 176824.0560    1.0000   68.6342 
6504.5000   14.7622    0.0000    0.0000  116.4786 2117.9267 -999.0000  563.0000    9.6206    3.7148 4449.7775   95.0089 3250.6187 176823.8733    1.0000   68.6347 
6505.0000   14.7621    0.0000    0.0000  116.4734 2117.9873 -999.0000  563.0000    9.6038    3.6825 4502.8054   95.0794 3245.1846 176823.6907    1.0000   68.6353 
6505.5000   14.7621    0.0000    0.0000  116.4682 2118.0478 -999.0000  563.0000    9.6181    3.6502 4533.1634   95.1500 3250.2820 176823.5080    1.0000   68.6358 
6506.0000   14.7621    0.0000    0.0000  116.4630 2118.1084 -999.0000  563.0000    9.6092    3.6179 4477.1905   95.2205 3247.5215 176823.3254    1.0000   68.6363 
6506.5000   14.7621    0.0000    0.0000  116.4577 2118.1690 -999.0000  563.0000    9.5746    3.5856 4456.8627   95.2910 3236.0729 176823.1427    1.0000   68.6368 
6507.0000   14.7621    0.0000    0.0000  116.4525 2118.0247 -999.0000  563.0000    9.5762    3.5532 4480.5502   95.3616 3236.8683 176822.9601    1.0000   68.6374 
6507.5000   14.7620    0.0000    0.0000  116.4473 2117.6341 -999.0000  563.0000    9.5835    3.5209 4437.5687   95.4321 3239.5675 176822.7774    1.0000   68.6379 
6508.0000   14.7620    0.0000    0.0000  116.4421 2117.2434 -999.0000  563.0000    9.5669    3.4886 4439.1983   95.5026 3234.2258 176822.5948    1.0000   68.6384 
6508.5000   14.7620    0.0000    0.0000  116.4368 2116.8528 -999.0000  563.0000    9.5749    3.4563 4485.2352   95.5731 3237.1648 176822.4121    1.0000   68.6389 
6509.0000   14.7620    0.0000    0.0000  116.4316 2116.4621 -999.0000  563.0000    9.5872    3.4240 4455.7120   95.6437 3241.5663 176822.2295    1.0000   68.6395 
6509.5000   14.7620    0.0000    0.0000  116.4264 2116.0714 -999.0000  563.0000    9.6156    3.3917 4494.5307   95.7142 3251.4139 176822.0468    1.0000   68.6400 
6510.0000   14.7620    0.0000    0.0000  116.4212 2115.6808 -999.0000  563.0000    9.6023    3.3593 4479.1193   95.7847 3247.1681 176821.8642    1.0000   68.6405 
6510.5000   14.7619    0.0000    0.0000  116.4160 2115.2901 -999.0000  563.0000    9.6127    3.3270 4489.5413   95.8553 3250.9356 176821.6815    1.0000   68.6410 
6511.0000   14.7619    0.0000    0.0000  116.4107 2114.8611 -999.0000  563.0000    9.6512    4.1901 4472.3821   95.9258 3264.2318 176821.4989    1.0000   68.6416 
6511.5000   14.7619    0.0000    0.0000  116.4055 2114.2895 -999.0000  563.0000    9.6164    3.9594 4490.2922   95.9963 3252.6857 176821.3162    1.0000   68.6421 
6512.0000   14.7619    0.0000    0.0000  116.4003 2113.7179 -999.0000  563.0000    9.5903    4.5567 4459.4241   96.0669 3244.1073 176821.1336    1.0000   68.6426 
6512.5000   14.7619    0.0000    0.0000  116.3951 2113.1462 -999.0000  563.0000    9.6112    4.0874 4483.0192   96.1374 3251.4486 176820.9509    1.0000   68.6431 
6513.0000   14.7618    0.0000    0.0000  116.3898 2112.5746 -999.0000  563.0000    9.6361    3.2436 4535.4469   96.2079 3260.1023 176820.7683    1.0000   68.6437 
6513.5000   14.7618    0.0000    0.0000  116.3846 2112.0030 -999.0000  563.0000    9.6338    3.7390 4477.0601   96.2784 3259.5730 176820.5856    1.0000   68.6442 
6514.0000   14.7618    0.0000    0.0000  116.3794 2111.4313 -999.0000  563.0000    9.6189    3.7226 4394.1757   96.3490 3254.7999 176820.4030    1.0000   68.6447 
6514.5000   14.7618    0.0000    0.0000  116.3742 2110.8597 -999.0000  563.0000    9.5865    3.9493 4402.2292   96.4195 3244.0730 176820.2203    1.0000   68.6452 
6515.0000   14.7618    0.0000    0.0000  116.3689 2110.2881 -999.0000  563.0000    9.5772    4.4106 4415.3795   96.4900 3241.1666 176820.0377    1.0000   68.6458 
6515.5000   14.7618    0.0000    0.0000  116.3637 2109.6202 -999.0000  563.0000    9.5976    3.4364 4446.4935   96.5606 3248.3290 176819.8550    1.0000   68.6463 
6516.0000   14.7617    0.0000    0.0000  116.3585 2108.9494 -999.0000  563.0000    9.6160    3.3832 4491.1199   96.6311 3254.8056 176819.6724    1.0000   68.6468 
6516.5000   14.7617    0.0000    0.0000  116.3533 2108.2785 -999.0000  563.0000    9.6026    2.4955 4446.6057   96.7016 3250.5130 176819.4897    1.0000   68.6473 
6517.0000   14.7617    0.0000    0.0000  116.3480 2107.6077 -999.0000  563.0000    9.6003    1.9142 4477.6555   96.7722 3249.9962 176819.3071    1.0000   68.6479 
6517.5000   14.7617    0.0000    0.0000  116.3428 2106.9369 -999.0000  563.0000    9.5783    2.2562 4436.7366   96.8427 3242.8107 176819.1244    1.0000   68.6484 
6518.0000   14.7617    0.0000    0.0000  116.3376 2106.2660 -999.0000  563.0000    9.6248    2.4598 4468.2025   96.9132 3258.8009 176818.9417    1.0000   68.6489 
6518.5000   14.7616    0.0000    0.0000  116.3324 2105.5952 -999.0000  563.0000    9.6260    3.4235 4482.0762   96.9837 3259.4482 176818.7591    1.0000   68.6494 
6519.0000   14.7616    0.0000    0.0000  116.3307 2104.9243 -999.0000  563.0000    9.5881    3.1860 4460.4843   97.0543 3246.8548 176818.5764    1.0000   68.6500 
6519.5000   14.7616    0.0000    0.0000  116.3307 2104.4410 -999.0000  563.0000    9.6460    3.5995 4458.2847   97.1248 3266.7128 176818.3938    1.0000   68.6505 
6520.0000   14.7616    0.0000    0.0000  116.3307 2104.0278 -999.0000  563.0000    9.6015    3.5319 4496.8517   97.1953 3251.8828 176818.2111    1.0000   68.6510 
6520.5000   14.7616    0.0000    0.0000  116.3307 2103.6146 -999.0000  563.0000    9.6077    3.4141 4456.3882   97.2659 3254.2509 176818.0285    1.0000   68.6515 
6521.0000   14.7616    0.0000    0.0000  116.3307 2103.2014 -999.0000  563.0000    9.6161    3.2724 4525.8070   97.3364 3257.3270 176817.8458    1.0000   68.6521 
6521.5000   14.7615    0.0000    0.0000  116.3307 2102.7882 -999.0000  563.0000    9.5898    3.5893 4522.3459   97.4069 3248.6892 176817.6632    1.0000   68.6526 
6522.0000   14.7615    0.0000    0.0000  116.3307 2102.3750 -999.0000  563.0000    9.6202    3.5451 4494.9810   97.4775 3259.2161 176817.4805    1.0000   68.6531 
6522.5000   14.7615    0.0000    0.0000  116.3307 2101.9618 -999.0000  563.0000    9.6096    3.2696 4499.2620   97.5480 3255.8791 176817.2979    1.0000   68.6537 
6523.0000   14.7615    0.0000    0.0000  116.3307 2101.5486 -999.0000  563.0000    9.5999    3.3389 4512.9095   97.6185 3252.8469 176817.1152    1.0000   68.6542 
6523.5000   14.7615    0.0000    0.0000  116.3307 2100.7434 -999.0000  563.0000    9.5959    3.6683 4532.5072   97.6890 3251.7437 176816.9326    1.0000   68.6547 
6524.0000   14.7614    0.0000    0.0000  116.3307 2099.5226 -999.0000  563.0000    9.5847    3.3266 4520.2967   97.7596 3248.1948 176816.7499    1.0000   68.6552 
6524.5000   14.7614    0.0000    0.0000  116.3307 2098.3019 -999.0000  563.0000    9.5869    3.6778 4428.6598   97.8301 3249.1950 176816.5673    1.0000   68.6558 
