~V
VERS  .       2.0                       : 
WRAP  .       NO                        : 
~W
STRT  .ft     6500.0000                 : 
STOP  .ft     15497.5000                : 
STEP  .ft        0.5000                 : 
NULL  .       -999.0000                 : 
COMP  .       Oxy                       : 
WELL  .       University 20-26 #1H      : 
FLD   .       Bone Spring               : 
LOC   .       Wink                      : 
SRVC  .       Scientific Drilling       : 
DATE  .       01/05/2009                : 
CNTY  .       Winkler County            : 
STAT  .       Texas                     : 
CTRY  .       United States             : 
API   .       42-495-33311              : 
~C
MD    .ft                               : Measured Depth
Weight-on-Bit(surf,avg).kip                              : 
TopDrvTorque.kip-ft                           : 
TopDrvSpeed.rpm                              : 
Temperature.degF                             : 
StandpipePressure.psi                              : 
ROP(MWD).ft/hr                            : 
MudFlowIn.gal/min                           : 
MergedcurvefromECD,ECDofLogAnnulusPress,ECDofLogAnnulusPress(MWD).lb/gal                           : 
LogRMSVibrations.G                                : 
LogPipePress.psi                              : 
LogGammaRay.aapi                             : 
LogAnnulusPress.psi                              : 
HookLoad(MWD).lbf                              : 
Gas(avg).%                                : 
BlockPosition(MWD).ft                               : 
~P
~O
~A
# ...
11275.0000   12.9554   57.1042    0.0319  143.6142 3098.8619   16.2914  584.0000   10.3537    0.9303 7373.6305  143.2357 6026.0721  241.0133  284.0000   77.1356 
11275.5000    7.6694   36.4078    0.0195  143.6142 3085.2331   17.8671  584.0000   10.3492    2.1842 7395.5364  136.4497 6023.6562  241.0452  276.0000   76.6360 
11276.0000    8.3000   35.3548    0.0190  143.6142 3062.7128   17.6929  584.0000   10.3447    2.4961 7396.6327  109.6114 6021.1931  240.9611  268.7291   76.1359 
11276.5000   10.3863   18.3570    0.0098  143.6142 3085.3535   16.8498  584.0000   10.3654    2.1277 7332.5080   84.9699 6033.4526  240.6666  268.0000   75.6360 
11277.0000   12.1226    6.7001    0.0024  143.6142 3057.7974   14.2547  584.0000   10.3791    2.3912 7357.2244   65.4826 6041.6170  240.3334  271.0000   75.1359 
11277.5000   12.3391    6.6429    0.0024  143.6142 3054.4235   11.6616  584.0000   10.3681    1.7501 7333.1950   54.7721 6035.4020  240.3918  280.3044   74.6357 
11278.0000   15.1207    6.4493    0.0023  143.6142 3053.5004    9.5629  584.0000   10.4086    1.4029 7289.6207   61.7212 6059.1934  240.3787  346.3963   74.1361 
11278.5000   15.9220    0.0000    0.0000  143.6142 3069.4399    8.8567  584.0000   10.3841    1.3145 7369.9681   76.8594 6045.0778  240.2882  314.0000   73.6361 
11279.0000   16.1000    0.0000    0.0000  143.6142 3084.7895    9.2291  584.0000   10.4085    1.2160 7419.4784   97.0231 6059.4840  240.3060  250.0000   73.1356 
11279.5000   15.8000    8.9593    0.0066  143.6142 3013.9626    9.6374  584.0000   10.4110    1.6648 7307.4777  119.5310 6061.1584  240.2764  245.0856   72.6361 
11280.0000   19.6000   11.2411    0.0094  143.6142 3067.3407   10.5679  584.0000   10.4320    1.9063 7427.6986  131.1577 6073.5518  240.1985  256.0000   72.1357 
11280.5000   15.1764   14.0674    0.0091  143.6142 3134.6851   10.4801  584.0000   10.4562    1.8220 7310.5678  126.9195 6087.8232  240.1071  323.0000   71.6360 
11281.0000   13.4000   37.0176    0.0211  143.6142 3063.5937    9.8721  584.0000   10.4309    1.5501 7391.9411  112.6379 6073.2929  240.1966  340.0000   71.1357 
11281.5000   13.0603   42.7951    0.0251  143.6142 3048.2444   11.0125  584.0000   10.4612    1.1772 7405.0627   97.3667 6091.1518  240.2895  340.0000   70.6357 
11282.0000    3.3118   44.7596    0.0261  143.6142 3019.5815    9.3818  584.0000   10.4653    1.1556 7443.3370   86.2939 6093.7305  240.6228  381.5590   70.1355 
11282.5000    8.0269   50.7834    0.0311  143.6142 3009.6032    9.3560  584.0000   10.4766    1.2126 7455.1148   82.1075 6100.4760  240.8305  316.0000   69.6356 
11283.0000   11.1142   55.6559    0.0352  143.6142 3066.0387    9.6086  584.0000   10.4816    1.5651 7342.0284   84.9693 6103.6202  241.0549  267.7159   69.1360 
11283.5000   15.2000   55.2869    0.0350  143.6142 3062.5179   10.9029  584.0000   10.4754    1.2513 7404.4111  102.3905 6100.1880  241.2837  256.3240   68.6359 
11284.0000   12.5934   78.1660    0.0394  143.6142 3148.8753   13.1557  584.0000   10.4749    1.2851 7367.4394  122.4800 6100.1179  241.4252  237.8007   68.1361 
11284.5000   15.6029   82.0887    0.0414  143.6142 3121.2098   16.5008  584.0000   10.4609    1.2801 7445.2622  134.9931 6092.1391  241.6314  233.9709   67.6360 
11285.0000    7.3495   85.3002    0.0430  143.6142 3155.6300   18.4177  584.0000   10.4640    1.3213 7435.5293  140.5016 6094.1151  241.9994  234.0000   67.1356 
11285.5000    4.1677   88.4428    0.0446  143.6142 3079.0159   14.6366  584.0000   10.4474    1.1873 7410.7998  138.9219 6084.6429  241.8292  318.0000   66.6358 
11286.0000    7.1000   78.6455    0.0370  143.6142 3057.1871   14.3173  584.0000   10.4445    1.5459 7440.5568  132.5245 6083.1442  241.8664  278.0000   66.1359 
11286.5000    9.9549   77.6468    0.0339  143.6142 3088.5292   15.5886  584.0000   10.4461    1.6077 7448.7449  132.0672 6084.2819  242.0243  310.7256   65.6357 
11287.0000    4.5000   79.4723    0.0347  143.6142 3155.1174   16.8025  584.0000   10.4534    1.3753 7434.3881  136.2381 6088.7568  242.1573  311.0000   65.1356 
11287.5000    7.3000   42.2784    0.0221  143.6142 3132.9739   20.9609  584.0000   10.4318    0.9964 7386.4547  141.5592 6076.3366  241.8658  296.0000   64.6356 
11288.0000    6.2291   40.4051    0.0211  143.6142 3167.3813   23.5930  584.0000   10.4326    1.0679 7428.3977  145.3896 6076.9901  241.6499  256.0000   64.1360 
11288.5000    8.1517   39.2613    0.0182  143.6142 3148.3377   18.3135  584.0000   10.4444    0.9146 7423.4262  148.2005 6084.0759  241.2357  249.0000   63.6359 
11289.0000   10.4930   34.1244    0.0138  143.6142 3095.9519   15.9634  584.0000   10.4466    0.8538 7453.6766  143.2050 6085.5338  241.0071  229.0000   63.1357 
11289.5000    4.7301   29.7805    0.0100  143.6142 3061.1135   13.4900  584.0000   10.4504    1.2153 7348.6582  127.7616 6087.9640  240.9500  183.0000   62.6358 
11290.0000    7.6733   50.9420    0.0171  143.6142 3019.3531   11.3251  584.0000   10.4416    1.7559 7386.4747  111.8795 6083.0214  241.0010  190.0000   62.1361 
11290.5000   11.1000   28.3213    0.0131  143.6142 3048.2378   11.1912  584.0000   10.4718    1.9344 7438.2015   92.8752 6100.8339  240.8135  191.0000   61.6359 
11291.0000   12.6000   57.0352    0.1909  143.6142 3067.3707   10.7611  584.0000   10.4361    1.7967 7479.4405   83.1607 6080.1844  240.6686  190.0000   61.1359 
11291.5000   12.9000  188.0505    0.8806  143.6142 3072.3395   10.4372  584.0000   10.4528    2.3221 7389.7660   82.7288 6090.1411  240.4148  239.0000   60.6356 
11292.0000   12.9192  315.7058    1.4789  143.6142 3080.9456   11.6778  584.0000   10.4722    2.2174 7380.4871   94.6312 6101.6179  240.3201  329.0000   60.1362 
11292.5000   12.9000  571.4653    2.7581  143.6142 3077.5248   12.9345  584.0000   10.4586    1.7284 7462.6039  118.4639 6093.9019  240.2564  339.0000   59.6356 
11293.0000    9.4186 1020.9352    5.1816  143.6142 3094.0853   14.6335  584.0000   10.4755    1.8152 7418.4649  140.7558 6103.9445  240.1021  259.0000   59.1355 
11293.5000    6.7880 1456.3234    7.6209  143.6142 3053.8962   16.7621  584.0000   10.4750    1.9484 7414.3765  157.6755 6103.8658  240.1263  240.0000   58.6361 
11294.0000    6.5904 1920.2440   10.2402  143.6142 3046.7692   21.4370  584.0000   10.4611    1.7299 7456.7448  163.2397 6095.9245  240.2801  255.2879   58.1359 
11294.5000   11.6356 2389.9440   12.9887  143.6142 3088.0067   30.9660  584.0000   10.4684    3.1534 7378.8104  164.0448 6100.3870  240.4991  339.0000   57.6357 
11295.0000   12.7298 2891.2303   15.9721  143.6142 3111.7783   35.0725  584.0000   10.4439    1.6599 7476.8124  161.8749 6086.2892  240.6326  329.9139   57.1356 
11295.5000   14.6000 3388.3039   18.5778  143.6142 3115.0884   27.5605  584.0000   10.4520    1.6813 7460.5754  154.8028 6091.2177  240.8997  336.0000   56.6358 
11296.0000   15.4987 3888.7218   21.3030  143.6142 3059.2742   21.4526  584.0000   10.4527    1.2918 7437.9718  138.2908 6091.8083  241.1262  318.0000   56.1357 
11296.5000   14.7000 4386.1624   24.1233  143.6142 3072.4702   16.4676  584.0000   10.4374    1.4052 7446.1557  113.5141 6083.1023  241.1992  314.0000   55.6358 
11297.0000   15.0000 4936.7425   27.2299  143.6142 3090.9420   14.8622  584.0000   10.4500    1.0321 7474.3605   93.6137 6090.6347  241.2778  311.0000   55.1357 
11297.5000   14.8956 5283.8686   29.2485  143.6142 3076.0776   16.2669  584.0000   10.4450    1.0216 7429.1384   86.2814 6087.9187  241.3009  318.2390   54.6356 
11298.0000   15.2000 5267.2793   29.2445  143.6142 3073.7896   19.1420  584.0000   10.4427    0.9257 7447.0063   87.1336 6086.7981  241.3962  357.0000   54.1357 
11298.5000   14.3386 5273.3568   29.2378  143.6142 3159.9517   23.7396  584.0000   10.4480    0.9252 7425.9104   98.6053 6090.0628  241.5080  449.8072   53.6357 
11299.0000   12.1362 5251.9100   29.2415  143.6142 3125.3025   30.4246  584.0000   10.4480    1.1518 7412.9920  121.9229 6090.2414  241.6932  468.0000   53.1362 
11299.5000   13.5542 5234.0465   29.2408  143.6142 3122.7122   29.8507  584.0000   10.4408    1.1258 7410.8627  137.8557 6086.2765  242.0056  454.0000   52.6358 
