~V
VERS  .       2.0                       : 
WRAP  .       NO                        : 
~W
STRT  .ft     6500.0000                 : 
STOP  .ft     15497.5000                : 
STEP  .ft        0.5000                 : 
NULL  .       -999.0000                 : 
COMP  .       Oxy                       : 
WELL  .       University 20-26 #1H      : 
FLD   .       Bone Spring               : 
LOC   .       Wink                      : 
SRVC  .       Scientific Drilling       : 
DATE  .       01/05/2009                : 
CNTY  .       Winkler County            : 
STAT  .       Texas                     : 
CTRY  .       United States             : 
API   .       42-495-33311              : 
~C
MD    .ft                               : Measured Depth
Weight-on-Bit(surf,avg).kip                              : 
TopDrvTorque.kip-ft                           : 
TopDrvSpeed.rpm                              : 
Temperature.degF                             : 
StandpipePressure.psi                              : 
ROP(MWD).ft/hr                            : 
MudFlowIn.gal/min                           : 
MergedcurvefromECD,ECDofLogAnnulusPress,ECDofLogAnnulusPress(MWD).lb/gal                           : 
LogRMSVibrations.G                                : 
LogPipePress.psi                              : 
LogGammaRay.aapi                             : 
LogAnnulusPress.psi                              : 
HookLoad(MWD).lbf                              : 
Gas(avg).%                                : 
BlockPosition(MWD).ft                               : 
~P
~O
~A
# ...
7700.0000   25.0775    0.0000    0.0000  133.6929 2265.8476   38.8056  563.0000    9.4803    3.7296 4916.4701   36.0050 3791.9244 185899.9919   35.0000   69.4000 
7700.5000   25.1039    0.0000    0.0000  133.6929 2222.4630   40.5062  563.0000    9.4781    4.0513 4997.8097   34.5467 3791.2739 185599.9939   34.0000   69.0000 
7701.0000   25.1450    0.0000    0.0000  133.6929 2268.4763   42.3494  563.0000    9.4770    4.2047 4878.4634   35.0092 3791.0643 182302.9929   32.0000   68.5000 
7701.5000   25.1652    0.0000    0.0000  133.6929 2260.7739   44.7333  563.0000    9.4832    3.8365 4929.3531   33.5176 3793.8113 186531.7308   32.0000   67.9000 
7702.0000   25.1934    0.0000    0.0000  133.6929 2163.2784   47.0853  563.0000    9.4989    5.0513 4967.4881   32.5415 3800.3312 185004.2412   31.0000   67.4000 
7702.5000   25.1962    0.0000    0.0000  133.6929 2269.6073   48.4416  563.0000    9.4617    4.4147 5006.4120   30.9874 3785.7014 182611.2293   32.0000   66.9000 
7703.0000   25.2004    0.0000    0.0000  133.6929 2264.4005   48.1329  563.0000    9.4769    4.0277 5045.2983   30.4203 3792.0305 184110.9865   32.0000   66.5000 
7703.5000   25.2232    0.0000    0.0000  133.6929 2276.5358   46.3659  563.0000    9.4913    4.5184 5067.5716   30.9750 3798.0360 185810.9103   32.0000   66.0000 
7704.0000   25.2131    0.0000    0.0000  133.6929 2281.1205   43.6403  563.0000    9.4929    3.9209 5077.1894   32.7453 3798.9285 184999.9980   32.0000   65.4000 
7704.5000   25.1780    0.0000    0.0000  133.6929 2281.4354   41.3299  563.0000    9.4857    3.7144 5018.6153   36.1305 3796.2945 185440.4046   32.0000   64.9000 
7705.0000   25.1606    0.0000    0.0000  133.6929 2249.2307   39.2782  563.0000    9.4606    4.1818 5049.7555   38.5188 3786.4813 186316.7045   32.0000   64.4981 
7705.5000   25.1454    0.0000    0.0000  133.6929 2223.9975   37.0738  563.0000    9.4685    3.6865 5037.8450   35.6915 3789.9019 185292.9437   31.0000   64.0000 
7706.0000   25.1126    0.0000    0.0000  133.6929 2188.5370   35.7142  563.0000    9.4620    3.3421 5009.0337   32.2505 3787.5321 185299.9960   29.0000   63.5000 
7706.5000   25.0890    0.0000    0.0000  133.6929 2186.7205   34.3472  563.0000    9.4795    3.6774 4964.3032   31.1969 3794.7937 185299.9960   30.0000   62.9000 
7707.0000   25.0641    0.0000    0.0000  133.6929 2196.9004   32.2630  563.0000    9.4944    4.2701 5003.5213   31.1899 3801.0089 184717.7968   29.9703   62.4000 
7707.5000   25.0365    0.0000    0.0000  133.6929 2177.6444   30.2169  563.0000    9.4674    3.9247 5042.4535   33.5987 3790.4266 186308.8621   30.0000   61.9000 
7708.0000   25.0199    0.0000    0.0000  133.6929 2204.5353   28.3674  563.0000    9.4567    4.0696 5167.2811   44.2067 3786.3982 185608.2648   31.0000   61.4000 
7708.5000   24.9982    0.0000    0.0000  133.6929 2185.6429   26.4785  563.0000    9.4851    4.0391 5003.8337   54.0772 3798.0001 186294.0929   32.0000   60.9000 
7709.0000   24.9757    0.0000    0.0000  133.6929 2175.7716   24.5411  563.0000    9.4988    4.1958 5057.6301   58.1118 3803.7553 185908.5936   39.0000   60.4000 
7709.5000   24.9568    0.0000    0.0000  133.6929 2196.5842   23.6207  563.0000    9.4967    4.3092 4974.9008   56.6974 3803.1703 185321.3374   37.0000   60.0000 
7710.0000   24.9575    0.0000    0.0000  133.6929 2188.9515   24.8074  563.0000    9.4843    3.8194 5070.1238   50.7942 3798.4456 185317.8423   35.0000   59.5000 
7710.5000   24.9549    0.0000    0.0000  133.6929 2182.3655   27.0606  563.0000    9.4450    4.4831 5050.5461   42.3720 3782.9345 186599.9986   37.0000   59.0000 
7711.0000   24.9845    0.0000    0.0000  133.6929 2197.4802   28.8604  563.0000    9.4770    4.0563 5072.7921   35.9639 3796.0237 185310.5559   39.0000   58.5000 
7711.5000   24.8641    0.0000    0.0000  133.6929 2214.4516   30.5884  563.0000    9.4548    3.7508 5083.9270   37.0529 3787.3485 185610.5908   38.0000   58.0000 
7712.0000   24.4420    0.0000    0.0000  133.6929 2357.6507   32.5600  563.0000    9.4489    4.2871 4989.5154   39.7722 3785.2474 185599.9939   39.0000   57.4000 
7712.5000   24.1229    0.0000    0.0000  133.6929 2273.0398   34.4548  563.0000    9.4658    4.6211 4888.2200   42.5211 3792.2753 184546.6411   40.0000   56.9000 
7713.0000   24.0842    0.0000    0.0000  133.6929 2209.8073   38.3351  563.0000    9.4819    3.6289 5060.4635   44.1766 3798.9439 185603.4647   40.0000   56.4988 
7713.5000   24.0805    0.0000    0.0000  133.6929 2248.5726   42.2789  563.0000    9.4755    3.7038 5032.6607   40.3583 3796.6525 185346.8636   41.0000   56.0000 
7714.0000   24.0767    0.0000    0.0000  133.6929 2343.1918   44.2918  563.0000    9.4625    3.8328 5000.1035   38.0844 3791.6881 185402.1848   41.0000   55.4000 
7714.5000   24.0763    0.0000    0.0000  133.6929 2282.1373   45.7129  563.0000    9.4881    4.4738 5109.3855   37.1600 3802.1923 189188.6567   42.0000   54.9000 
7715.0000   24.0505    0.0000    0.0000  133.6929 2180.9725   47.5096  563.0000    9.4522    4.3405 5004.5370   38.1955 3788.0168 199998.2708   44.0000   54.4999 
7715.5000   24.0605    0.0000    0.0000  133.6929 2195.1049   49.1120  563.0000    9.5053    4.2153 5010.1217   38.2632 3809.5781 191101.5787   44.0000   54.0000 
7716.0000   24.1633    0.0000    0.0000  133.6929 2237.2385   49.2339  563.0000    9.4890    4.6817 5000.1695   35.6922 3803.2864 184711.2128   44.0000   53.4000 
7716.5000   24.1723    0.0000    0.0000  133.6929 2220.8717   48.1840  563.0000    9.4962    4.0883 5037.1149   32.7292 3806.4078 185012.3117   43.0000   52.9009 
7717.0000   24.1698    0.0000    0.0000  133.6929 2220.5135   47.3434  563.0000    9.4715    3.9721 4995.1378   31.2766 3796.7390 185900.2052   44.0000   52.5000 
7717.5000   24.0767    0.0000    0.0000  133.6929 2238.0098   47.5480  563.0000    9.4981    3.9198 4890.5113   32.1056 3807.6534 185605.1631   45.0000   52.0000 
7718.0000   24.0165    0.0000    0.0000  133.6929 2281.9129   47.7616  563.0000    9.4879    4.0176 4879.4549   36.8807 3803.8126 184989.0925   48.0000   51.5000 
7718.5000   24.2699    0.0000    0.0000  133.6929 2226.4813   47.8474  563.0000    9.4930    3.8179 4984.3291   45.3660 3806.1130 184992.7242   52.0000   50.9000 
7719.0000   24.5194    0.0000    0.0000  133.6929 2225.8938   48.7736  563.0000    9.5437    4.6010 4989.5044   51.8988 3826.6732 186893.4734   55.0000   50.4000 
7719.5000   24.4316    0.0000    0.0000  133.6929 2251.0537   48.7909  563.0000    9.5447    3.7876 5080.5148   52.8191 3827.3283 185314.5559   55.9888   49.9000 
7720.0000   24.2228    0.0000    0.0000  133.6929 2302.3916   48.3582  563.0000    9.5589    3.3518 5067.5163   49.0979 3833.2980 185899.9919   53.0000   49.4332 
7720.5000   24.0098    0.0000    0.0000  133.6929 2383.9759   50.2650  563.0000    9.5381    4.4247 5071.7177   44.0505 3825.1926 185315.7401   54.0000   49.0000 
7721.0000   23.7597    0.0000    0.0000  133.6929 2266.1889   52.9379  563.0000    9.5423    4.2904 5075.0535   38.6724 3827.1137 189290.2054   57.0000   48.4000 
7721.5000   23.5367    0.0000    0.0000  133.6929 2276.4131   55.2846  563.0000    9.5118    4.7475 5005.6551   34.5466 3815.1380 187644.8061   55.0000   47.9000 
7722.0000   23.3880    0.0000    0.0000  133.6929 2284.2243   57.5333  563.0000    9.5339    4.3498 5092.9808   36.6291 3824.2520 188392.8611   51.0000   47.4000 
7722.5000   23.2856    0.0000    0.0000  133.6929 2318.2458   60.2095  563.0000    9.5285    3.8040 5063.0504   42.9833 3822.3207 187799.3270   54.0000   46.9000 
7723.0000   22.9923    0.0000    0.0000  133.6929 2285.3358   62.9884  563.0000    9.5336    3.4128 5028.2881   48.9458 3824.6307 189007.6289   60.0000   46.4006 
7723.5000   22.9415    0.0000    0.0000  133.6929 2269.9218   65.3205  563.0000    9.5185    3.8825 5013.5376   50.3587 3818.8193 187800.1419   65.0000   46.0000 
7724.0000   22.9216    0.0000    0.0000  133.6929 2287.2653   66.9672  563.0000    9.5598    3.9008 5062.2534   46.0172 3835.6405 190191.3557   70.0000   45.5000 
7724.5000   23.1756    0.0000    0.0000  133.6929 2316.3135   67.5962  563.0000    9.5250    4.3227 5035.6642   39.2541 3821.9092 188600.9200   73.0000   44.9000 
