~V
VERS  .       2.0                       : 
WRAP  .       NO                        : 
~W
STRT  .ft     6500.0000                 : 
STOP  .ft     15497.5000                : 
STEP  .ft        0.5000                 : 
NULL  .       -999.0000                 : 
COMP  .       Oxy                       : 
WELL  .       University 20-26 #1H      : 
FLD   .       Bone Spring               : 
LOC   .       Wink                      : 
SRVC  .       Scientific Drilling       : 
DATE  .       01/05/2009                : 
CNTY  .       Winkler County            : 
STAT  .       Texas                     : 
CTRY  .       United States             : 
API   .       42-495-33311              : 
~C
MD    .ft                               : Measured Depth
Weight-on-Bit(surf,avg).kip                              : 
TopDrvTorque.kip-ft                           : 
TopDrvSpeed.rpm                              : 
Temperature.degF                             : 
StandpipePressure.psi                              : 
ROP(MWD).ft/hr                            : 
MudFlowIn.gal/min                           : 
MergedcurvefromECD,ECDofLogAnnulusPress,ECDofLogAnnulusPress(MWD).lb/gal                           : 
LogRMSVibrations.G                                : 
LogPipePress.psi                              : 
LogGammaRay.aapi                             : 
LogAnnulusPress.psi                              : 
HookLoad(MWD).lbf                              : 
Gas(avg).%                                : 
BlockPosition(MWD).ft                               : 
~P
~O
~A
# ...
11875.0000   17.0000   21.5213    0.0285  146.0945 3244.3191   16.8920  584.0000   10.4558    1.9672 7570.4401   53.7481 6284.0321  235.1927  169.0000   44.1340 
11875.5000   18.0000   20.7551    0.0275  146.0945 3265.8032   15.8715  584.0000   10.4562    1.8325 7646.5654   54.4618 6284.3410  235.0255  162.9159   43.6339 
11876.0000   18.1000   16.0041    0.0234  146.0945 3245.4278   15.0883  584.0000   10.4435    2.2080 7641.2138   53.8950 6276.7623  234.9072  166.0000   43.1338 
11876.5000   19.0000   12.5197    0.0177  146.0945 3210.7380   14.0121  584.0000   10.4392    2.6781 7623.5324   54.3833 6274.2560  234.8246  160.0000   42.6337 
11877.0000   19.1000   27.0007    0.0226  146.0945 3254.7409   13.5538  584.0000   10.4571    1.5616 7619.2639   54.4874 6285.0863  234.7401  149.0000   42.1341 
11877.5000   19.1000   26.9290    0.0226  146.0945 3229.1057   13.2412  584.0000   10.4443    1.4431 7652.7673   54.4571 6277.4607  234.6453  150.0000   41.6336 
11878.0000   18.9000   43.2312    0.0260  146.0945 3254.3961   13.6025  584.0000   10.4505    1.5399 7615.6244   54.6936 6281.2775  234.6027  158.6353   41.1341 
11878.5000   19.0000   40.8961    0.0220  146.0945 3248.6487   13.2699  584.0000   10.4440    1.7501 7562.8034   55.1465 6277.4340  234.5881  173.0000   40.6336 
11879.0000   19.0000   48.4836    0.0262  146.0945 3221.5352   13.2250  584.0000   10.4517    1.6666 7652.2685   56.6691 6282.1747  234.5628  180.3438   40.1339 
11879.5000   19.1000   56.4970    0.0255  146.0945 3236.1114   13.4111  584.0000   10.4539    1.5788 7579.8691   57.1118 6283.5537  234.5597  189.3372   39.6340 
11880.0000   19.0000   67.8737    0.0271  146.0945 3257.7336   13.9281  584.0000   10.4664    1.5106 7584.1418   58.2706 6291.1308  234.6205  189.5188   39.1337 
11880.5000   19.0767   65.9366    0.0254  146.0945 3282.4065   14.9347  584.0000   10.4357    1.3841 7569.5483   58.2727 6272.7729  234.6440  197.0000   38.6337 
11881.0000   18.9000   67.7118    0.0263  146.0945 3297.7515   16.0437  584.0000   10.4359    1.3717 7624.6167   58.9138 6272.9732  234.6793  209.0000   38.1337 
11881.5000   19.1000   69.3143    0.0269  146.0945 3280.7838   17.0560  584.0000   10.4455    1.3872 7589.6984   59.4544 6278.8471  234.7490  213.7325   37.6337 
11882.0000   19.4000   71.0074    0.0275  146.0945 3288.8704   17.4936  584.0000   10.4426    1.3967 7582.6396   60.3263 6277.1460  234.8042  218.0000   37.1337 
11882.5000   19.3000   79.7450    0.0340  146.0945 3290.5963   17.4611  584.0000   10.4527    1.5051 7585.1626   60.6809 6283.3212  234.8792  233.0000   36.6341 
11883.0000   19.5000   80.5614    0.0339  146.0945 3304.6973   17.4144  584.0000   10.4458    1.5543 7610.9334   61.3515 6279.2396  234.9194  235.0000   36.1338 
11883.5000   19.3000   68.8201    0.0355  146.0945 3303.1741   16.7246  584.0000   10.4492    1.6041 7651.7814   61.6528 6281.3247  234.9278  249.0000   35.6339 
11884.0000   19.6988   70.3082    0.0393  146.0945 3288.9242   17.1639  584.0000   10.4632    1.7598 7594.1590   61.9070 6289.8550  234.8671  262.0000   35.1341 
11884.5000   19.4000   48.1429    0.0314  146.0945 3304.2408   17.1510  584.0000   10.4455    1.9404 7684.1750   62.4530 6279.2766  234.8331  278.0270   34.6338 
11885.0000   19.1000   48.2945    0.0315  146.0945 3303.4832   16.2357  584.0000   10.4426    1.7058 7650.0471   61.9854 6277.5907  234.7874  297.0000   34.1339 
11885.5000   19.0000   42.4209    0.0309  146.0945 3288.1031   15.5235  584.0000   10.4544    1.4855 7642.6562   61.1174 6284.7538  234.7029  313.0000   33.6336 
11886.0000   19.5000   30.0959    0.0266  146.0945 3295.4707   14.3719  584.0000   10.4474    1.3909 7706.4268   60.0848 6280.6214  234.6055  315.0000   33.1342 
11886.5000   19.0366   17.5385    0.0216  146.0945 3272.5793   13.6136  584.0000   10.4484    1.3872 7623.4977   60.3936 6281.2851  234.4421  349.0000   32.6339 
11887.0000   19.0000   17.4606    0.0215  146.0945 3267.6828   14.3212  584.0000   10.4427    1.4856 7661.4025   60.5380 6277.9616  234.2670  305.0000   32.1339 
11887.5000   19.1000   17.2919    0.0213  146.0945 3241.1921   15.8199  584.0000   10.4687    1.3700 7681.8856   60.7218 6293.6330  234.0960  296.0000   31.6341 
11888.0000   20.0782   17.2378    0.0212  146.0945 3282.9834   16.3494  584.0000   10.4524    1.2629 7671.2126   61.9441 6283.8874  234.0976  289.5648   31.1339 
11888.5000   21.1220   21.8980    0.0254  146.0945 3284.4674   17.7631  584.0000   10.4429    1.5454 7609.4246   62.7489 6278.2554  234.1766  277.0000   30.6340 
11889.0000   21.0000   24.2928    0.0246  146.0945 3263.9867   16.8030  584.0000   10.4444    1.6313 7593.7381   63.6100 6279.2147  234.2639  272.4257   30.1340 
11889.5000   22.1000   23.2182    0.0243  146.0945 3268.6820   15.3971  584.0000   10.4562    1.5822 7665.1046   64.5132 6286.4123  234.3423  260.0000   29.6338 
11890.0000   22.2000   22.6698    0.0209  146.0945 3276.9057   14.5934  584.0000   10.4568    1.4160 7654.8088   64.8300 6286.8494  234.4049  292.0000   29.1340 
11890.5000   22.9000   30.1603    0.0223  146.0945 3244.3984   13.6989  584.0000   10.4363    1.3490 7635.9174   65.6952 6274.6080  234.5224  282.0000   28.6339 
11891.0000   12.0000   38.0449    0.0264  146.0945 3168.2360   12.8874  584.0000   10.4562    1.4663 7662.5914   65.6837 6286.6250  234.6118  226.3060   28.1339 
11891.5000   14.0000   37.0667    0.0257  146.0945 3184.2286   11.6259  584.0000   10.4606    1.4063 7703.2134   65.8249 6289.3596  234.6203  246.0000   27.6339 
11892.0000   14.0874   33.8208    0.0216  146.0945 3173.6440   10.8224  584.0000   10.4468    1.9046 7719.5018   66.1101 6281.1343  234.6326  325.3787   27.1341 
11892.5000   14.0000   33.3783    0.0213  146.0945 3184.7734   10.3150  584.0000   10.4686    1.5379 7683.4679   66.3380 6294.2672  234.6498  374.0000   26.6336 
11893.0000   14.2000   33.3330    0.0212  146.0945 3191.5165   10.6454  584.0000   10.4569    1.5768 7749.1849   66.6396 6287.3151  234.7195  427.0000   26.1342 
11893.5000   14.0000   33.3853    0.0210  146.0945 3203.8157   10.9714  584.0000   10.4679    1.5547 7751.4984   66.2211 6294.0198  234.8137  285.0000   25.6340 
11894.0000   14.1000   32.9675    0.0208  146.0945 3199.2340   12.1114  584.0000   10.4506    1.4807 7684.6066   66.8964 6283.6431  234.8969  264.2448   25.1339 
11894.5000   15.1000   32.8565    0.0207  146.0945 3183.4594   13.1692  584.0000   10.4300    1.4840 7700.3836   67.0016 6271.3559  234.8553  238.0000   24.6337 
11895.0000   17.1000   28.6087    0.0168  146.0945 3190.2325   14.1137  584.0000   10.4555    1.5500 7720.4177   68.1786 6286.7631  234.7355  187.0000   24.1336 
11895.5000   18.0620   21.0539    0.0125  146.0945 3207.9220   15.4665  584.0000   10.4362    1.0164 7613.5390   70.5684 6275.2378  234.6200  160.0000   23.6337 
11896.0000   18.0000   21.6993    0.0129  146.0945 3230.6173   15.5726  584.0000   10.4437    0.8361 7574.7550   75.8929 6279.8131  234.5426  145.0000   23.1336 
11896.5000   18.0000   23.3687    0.0106  146.0945 3235.5240   15.3660  584.0000   10.4560    2.0199 7514.7818   82.1607 6287.2623  234.5106  135.0000   22.6340 
11897.0000   18.0000   19.4226    0.0081  146.0945 3234.6270   14.7070  584.0000   10.4390    2.3753 7630.5363   87.1313 6277.1191  234.4461  136.0000   22.1336 
11897.5000   18.0893   35.5041    0.0131  146.0945 3212.0079   14.7234  600.0000   10.4369    1.9013 7594.4157   92.4438 6275.9070  234.3631  140.0000   21.6341 
11898.0000   18.1000   47.1400    0.0203  146.0945 3223.3338   14.9343  600.0000   10.4449    2.8029 7628.8238   95.4406 6280.8027  234.4227  144.0000   21.1341 
11898.5000   18.1000   60.4856    0.0268  146.0945 3212.1000   15.7598  600.0000   10.4439    2.9241 7657.7963   95.1578 6280.2426  234.5288  146.0000   20.6340 
11899.0000   18.1000   81.1674    0.0345  146.0945 3246.3641   18.0324  600.0000   10.4332    2.3984 7663.6484   93.2322 6273.8689  234.5986  135.0000   20.1335 
11899.5000   17.7000   86.4245    0.0367  146.0945 3254.8612   20.8810  600.0000   10.4504    1.5582 7581.7277   91.2356 6284.2745  234.6321  137.0000   19.6338 
