~V
VERS  .       2.0                       : 
WRAP  .       NO                        : 
~W
STRT  .ft     6500.0000                 : 
STOP  .ft     15497.5000                : 
STEP  .ft        0.5000                 : 
NULL  .       -999.0000                 : 
COMP  .       Oxy                       : 
WELL  .       University 20-26 #1H      : 
FLD   .       Bone Spring               : 
LOC   .       Wink                      : 
SRVC  .       Scientific Drilling       : 
DATE  .       01/05/2009                : 
CNTY  .       Winkler County            : 
STAT  .       Texas                     : 
CTRY  .       United States             : 
API   .       42-495-33311              : 
~C
MD    .ft                               : Measured Depth
Weight-on-Bit(surf,avg).kip                              : 
TopDrvTorque.kip-ft                           : 
TopDrvSpeed.rpm                              : 
Temperature.degF                             : 
StandpipePressure.psi                              : 
ROP(MWD).ft/hr                            : 
MudFlowIn.gal/min                           : 
MergedcurvefromECD,ECDofLogAnnulusPress,ECDofLogAnnulusPress(MWD).lb/gal                           : 
LogRMSVibrations.G                                : 
LogPipePress.psi                              : 
LogGammaRay.aapi                             : 
LogAnnulusPress.psi                              : 
HookLoad(MWD).lbf                              : 
Gas(avg).%                                : 
BlockPosition(MWD).ft                               : 
~P
~O
~A
# ...
7100.0000   17.0409    0.0000    0.0000  123.7717 2242.5364   48.7368  563.0000    9.5692    5.5073 4675.9492   38.3951 3529.2345 181995.6813   -3.0000    8.2000 
7100.5000   17.0378    0.0000    0.0000  123.7717 2253.7129   50.5145  563.0000    9.5774    2.5551 4705.0760   40.8821 3532.4960 181545.0796   -3.0000    7.7000 
7101.0000   17.0348    0.0000    0.0000  123.7717 2256.7746   53.7859  563.0000    9.5624    2.8303 4621.1679   44.7588 3527.2209 182183.7029   -3.0000    7.1204 
7101.5000   17.0311    0.0000    0.0000  123.7717 2247.7394   58.0169  563.0000    9.5461    3.9593 4739.8791   53.1675 3521.4402 182591.0885   -3.0000    6.7000 
7102.0000   17.0308    0.0000    0.0000  123.7717 2228.2455   62.7858  563.0000    9.5502    3.5110 4751.6702   67.5925 3523.1994 181851.2215   -3.0000    6.2000 
7102.5000   17.0289    0.0000    0.0000  123.7717 2212.3436   65.3142  563.0000    9.5450    4.1819 4757.6678   77.5938 3521.5229 182293.9513   -3.0000    5.6007 
7103.0000   17.0233    0.0000    0.0000  123.7717 2254.1613   66.0822  563.0000    9.5235    3.6513 4782.7459   79.9225 3513.8432 182299.2505   -3.0000    5.1499 
7103.5000   17.0325    0.0000    0.0000  123.7717 2218.1686   65.2366  563.0000    9.5602    2.3526 4778.1197   71.8782 3527.6584 181992.9741   -3.0000    4.7000 
7104.0000   17.0405    0.0000    0.0000  123.7717 2238.4375   64.4306  563.0000    9.4944    2.7127 4765.7042   57.1162 3503.6074 181988.9983   -3.0000    4.2000 
7104.5000   17.0431    0.0000    0.0000  123.7717 2241.3350   63.5951  563.0000    9.5276    4.6252 4666.2573   46.8580 3516.1015 181697.9444   -3.0000    3.6000 
7105.0000   17.0353    0.0000    0.0000  123.7717 2225.6591   61.4872  563.0000    9.5287    5.1844 4685.8805   41.1700 3516.7795 180700.5107   -3.0000    3.2000 
7105.5000   16.9979    0.0000    0.0000  123.7717 2199.5374   58.6758  563.0000    9.5316    3.6366 4768.3537   38.5622 3518.0944 181407.7237   -3.0000    2.7000 
7106.0000   16.9834    0.0000    0.0000  123.7717 2225.3926   57.2832  563.0000    9.5626    2.4400 4738.8613   36.8961 3529.7584 181692.9802   -3.0000    2.1000 
7106.5000   16.9813    0.0000    0.0000  123.7717 2211.4276   57.6649  563.0000    9.5999    2.6843 4715.0152   35.7989 3543.7784 180922.5529   -3.0000    1.6746 
7107.0000   16.9836    0.0000    0.0000  123.7717 2260.4064   58.2906  563.0000    9.5324    4.0794 4792.9814   35.1304 3519.1237 181986.2043   -3.0000    1.2000 
7107.5000   16.3788    0.0000    0.0000  123.7717 2194.3267   57.3871  563.0000    9.5451    5.4276 4768.1633   35.6238 3524.0719 182000.0013   -3.0000    0.6000 
7108.0000   14.7614    0.0000    0.0000  123.7717 2177.6377   54.2614  563.0000    9.5445    3.5625 4748.1590   36.0376 3524.0719 182582.4101   -3.0000    0.2000 
7108.5000   13.7574    0.0000    0.0000  123.7717 2312.4629   51.6841  563.0000    9.5438    3.6248 4790.3496   35.3432 3524.0719 181404.8437   -3.0000   -0.3000 
7109.0000   13.2616    0.0000    0.0000  123.7717 2225.9513   50.6358  563.0000    9.5431    4.0171 4795.1166   35.2816 3524.0719 182069.1112   -3.0000   -0.8000 
7109.5000   13.1360    0.0000    0.0000  123.7717 2252.6307   50.3517  563.0000    9.5425    4.3835 4730.2686   35.7869 3524.0719 182613.0640   -3.0000   -1.4000 
7110.0000   12.9580    0.0000    0.0000  123.7717 2213.2542   51.1218  563.0000    9.5418    3.7664 4730.2686   37.0285 3524.0719 181702.2770   -3.0000   -1.8008 
7110.5000   12.6129    0.0000    0.0000  123.7717 2234.1902   52.5262  563.0000    9.5411    5.9038 4730.2686   40.6696 3524.0719 181700.0033   -3.0000   -2.3000 
7111.0000   12.3217    0.0000    0.0000  123.7717 2097.5881   53.9402  563.0000    9.5404    6.1447 4730.2686   44.0673 3524.0719 200599.9947   -3.0000   92.0000 
7111.5000   12.0749    0.0000    0.0000  123.7717 2145.2526   56.2622  563.0000    9.5398    3.6643 4730.2686   44.8786 3524.0719 196099.3682   -3.0000   91.5000 
7112.0000   11.7993    0.0000    0.0000  123.7717 2126.4822   59.8699  563.0000    9.5391    2.3619 4730.2686   45.1251 3524.0719 188980.6518   -3.0000   90.9000 
7112.5000   11.6075    0.0000    0.0000  123.7717 2281.0751   62.1032  563.0000    9.5384    3.6228 4730.2686   42.4353 3524.0719 183399.1383   -3.0000   90.4664 
7113.0000   11.4895    0.0000    0.0000  123.7717 2261.9345   62.8561  563.0000    9.5378    3.9907 4730.2686   39.7547 3524.0719 184703.9552   -3.0000   90.0000 
7113.5000   11.7565    0.0000    0.0000  123.7717 2170.7658   61.3982  563.0000    9.5371    4.1455 4730.2686   38.7710 3524.0719 188400.0034   -3.0000   89.5000 
7114.0000   12.4231    0.0000    0.0000  123.7717 2177.0782   58.7091  563.0000    9.5599    5.4117 4730.2686   38.2370 3532.7448 185745.5673   -3.0000   88.9515 
7114.5000   13.9543    0.0000    0.0000  123.7717 2242.4167   58.5875  563.0000    9.5565    4.5641 4730.2686   38.4884 3531.7271 184100.0041   -3.0000   88.5000 
7115.0000   15.0644    0.0000    0.0000  123.7717 2282.7618   59.0308  563.0000    9.5303    2.4039 4730.2686   38.1583 3522.2987 184299.3974   -3.0000   88.0000 
7115.5000   15.4480    0.0000    0.0000  123.7717 2204.6906   59.0813  563.0000    9.5545    3.1164 4730.2686   37.5510 3531.5035 185937.4271   -3.0000   87.4663 
7116.0000   15.5507    0.0000    0.0000  123.7717 2115.6755   60.0464  563.0000    9.5530    3.6549 4715.5155   36.5451 3531.1858 186117.8843   -3.0000   87.0000 
7116.5000   15.6018    0.0000    0.0000  123.7717 2143.9535   60.5977  563.0000    9.5093    2.9814 4688.6028   36.1350 3515.2734 183800.0062   -3.0000   86.4000 
7117.0000   15.7415    0.0000    0.0000  123.7717 2155.2930   60.3585  563.0000    9.5648    2.7200 4733.3018   35.2164 3536.0605 183199.6753   -3.0000   86.0000 
7117.5000   15.8180    0.0000    0.0000  123.7717 2177.3730   60.0746  563.0000    9.5974    4.1251 4749.8457   35.0497 3548.3432 182588.1819   -3.0000   85.5000 
7118.0000   15.8754    0.0000    0.0000  123.7717 2238.4190   60.5689  563.0000    9.5425    5.0751 4733.5084   34.5523 3528.2986 184097.8537   -3.0000   85.0000 
7118.5000   16.0382    0.0000    0.0000  123.7717 2184.7523   59.5414  563.0000    9.5468    2.8279 4732.3709   33.6698 3530.1352 186227.5600   -3.0000   84.5000 
7119.0000   16.2677    0.0000    0.0000  123.7717 2189.5733   58.0233  563.0000    9.5499    3.1822 4748.2920   35.6953 3531.5168 182630.1268   -3.0000   84.0000 
7119.5000   16.4719    0.0000    0.0000  123.7717 2254.4864   57.4281  563.0000    9.5540    3.4283 4708.4324   36.4295 3533.3031 184199.9862   -3.0000   83.4333 
7120.0000   16.4380    0.0000    0.0000  123.7717 2209.8379   58.1314  563.0000    9.5451    3.0111 4763.0084   37.0061 3530.2698 184701.2481   -3.0000   83.0000 
7120.5000   16.3975    0.0000    0.0000  123.7717 2197.9570   61.7999  563.0000    9.5751    4.8646 4671.9435   36.4372 3541.5837 184563.4506   -3.0000   82.4000 
7121.0000   16.3368    0.0000    0.0000  123.7717 2211.4694   65.4617  563.0000    9.5322    3.4063 4709.9430   35.5905 3525.9630 183048.2757   -3.0000   81.9506 
7121.5000   16.2896    0.0000    0.0000  123.7717 2320.5819   69.8427  563.0000    9.5427    2.7886 4736.6060   36.2745 3530.1151 183497.9068   -3.0000   81.4497 
7122.0000   16.3788    0.0000    0.0000  123.7717 2225.1301   73.4756  563.0000    9.5341    2.7325 4674.1048   36.4959 3527.1832 184102.8841   -3.0000   81.0000 
7122.5000   16.3716    0.0000    0.0000  123.7717 2243.6654   76.0237  563.0000    9.5277    2.7934 4747.9729   38.1215 3525.0631 183799.4302   -3.0000   80.4999 
7123.0000   16.3753    0.0000    0.0000  123.7717 2230.3659   77.6447  563.0000    9.5426    4.2273 4717.6861   39.9363 3530.8294 183206.5869   -3.0000   80.0000 
7123.5000   16.5490    0.0000    0.0000  123.7717 2200.5921   79.9764  563.0000    9.5351    5.1757 4869.3744   41.4920 3528.2792 183195.7364   -3.0000   79.5000 
7124.0000   16.7220    0.0000    0.0000  123.7717 2252.7095   82.0621  563.0000    9.5640    3.1047 4701.9453   43.5800 3539.2160 186300.0006   -3.0000   79.0000 
7124.5000   16.7013    0.0000    0.0000  123.7717 2276.2814   83.4609  563.0000    9.5383    2.4240 4764.2408   47.1600 3529.9737 181809.5689   -3.0000   78.5000 
