~V
VERS  .       2.0                       : 
WRAP  .       NO                        : 
~W
STRT  .ft     6500.0000                 : 
STOP  .ft     15497.5000                : 
STEP  .ft        0.5000                 : 
NULL  .       -999.0000                 : 
COMP  .       Oxy                       : 
WELL  .       University 20-26 #1H      : 
FLD   .       Bone Spring               : 
LOC   .       Wink                      : 
SRVC  .       Scientific Drilling       : 
DATE  .       01/05/2009                : 
CNTY  .       Winkler County            : 
STAT  .       Texas                     : 
CTRY  .       United States             : 
API   .       42-495-33311              : 
~C
MD    .ft                               : Measured Depth
Weight-on-Bit(surf,avg).kip                              : 
TopDrvTorque.kip-ft                           : 
TopDrvSpeed.rpm                              : 
Temperature.degF                             : 
StandpipePressure.psi                              : 
ROP(MWD).ft/hr                            : 
MudFlowIn.gal/min                           : 
MergedcurvefromECD,ECDofLogAnnulusPress,ECDofLogAnnulusPress(MWD).lb/gal                           : 
LogRMSVibrations.G                                : 
LogPipePress.psi                              : 
LogGammaRay.aapi                             : 
LogAnnulusPress.psi                              : 
HookLoad(MWD).lbf                              : 
Gas(avg).%                                : 
BlockPosition(MWD).ft                               : 
~P
~O
~A
# ...
8900.0000   33.9485 5038.9248   44.0000  138.6535 2655.9719    0.0000  600.0000    9.3953    5.0584 5656.2504    8.1199 4343.4552 213518.2414    9.0000   24.5000 
8900.5000   34.0000 5043.2575   44.0000  138.6535 2654.2319    0.0000  600.0000    9.4073    5.1106 5648.0380    7.9706 4349.2396 214108.0917    9.0000   23.9000 
8901.0000   33.3451 5039.9271   44.9678  138.6535 2652.9467    0.0000  600.0000    9.3926    5.0090 5586.4024    8.3178 4342.6983 214670.9802    9.0000   23.4000 
8901.5000   33.6076 5052.8843   44.0000  138.6535 2648.6598    0.0000  600.0000    9.3739    5.0554 5626.4103    8.9464 4334.3038 213797.7420    9.0000   22.9008 
8902.0000   34.5990 5073.2533   44.0000  138.6535 2649.4368    0.0000  600.0000    9.4209    5.2113 5597.9770    9.4814 4356.2487 214100.9656    9.0000   22.4000 
8902.5000   34.2854 5086.7759   44.0000  138.6535 2658.9617    0.0000  600.0000    9.3889    5.1350 5621.1948    9.8841 4341.7281 214087.4516    9.0000   21.9979 
8903.0000   34.1962 5111.0374   44.0000  138.6535 2648.7501    0.0000  600.0000    9.4046    4.1848 5598.4797    9.5956 4349.2012 214077.0390    9.0000   21.5000 
8903.5000   33.7959 5105.4894   44.0000  138.6535 2652.5332    0.0000  600.0000    9.3924    4.8618 5585.0430    8.8540 4343.8134 213806.1739    9.0000   21.0000 
8904.0000   34.5994 5096.3055   44.0028  138.6535 2649.6287    0.0000  600.0000    9.3881    4.9094 5572.1758    8.9868 4342.0900 213199.9947    9.0000   20.4000 
8904.5000   33.9610 5085.6467   44.0000  138.6535 2657.9189    0.0000  600.0000    9.4081    4.7667 5639.7651    9.2963 4351.5743 213199.9947   10.0000   19.9000 
8905.0000   33.8000 5076.4994   44.0000  138.6535 2623.4292    0.0000  600.0000    9.4071    5.0084 5611.6197    9.8106 4351.3366 212348.9240   10.0000   19.4000 
8905.5000   34.0947 5072.2391   44.0000  138.6535 2646.6772    0.0000  600.0000    9.4080    5.6093 5617.2848    9.7567 4352.0152 214376.0771    9.0000   18.9027 
8906.0000   33.8982 5066.8665   44.9823  138.6535 2650.8908    0.0000  600.0000    9.3954    4.6473 5626.5629    9.4553 4346.4343 213792.0322   10.0000   18.4000 
8906.5000   34.3947 5065.9282   44.0000  138.6535 2659.4934    0.0000  600.0000    9.4193    4.5182 5600.2638    8.7860 4357.7039 213205.3116   10.0000   17.9991 
8907.0000   33.8963 5066.3409   44.0000  138.6535 2658.6087    0.0000  600.0000    9.4038    4.8498 5659.1761    9.1727 4350.8088 214407.4148   10.0000   17.5000 
8907.5000   33.8261 5065.5720   44.0000  138.6535 2654.5602    0.0000  600.0000    9.3865    4.8876 5635.2944    9.7579 4343.0357 213800.0077   10.0000   17.0000 
8908.0000   33.8015 5054.2381   44.0000  138.6535 2659.3787    0.0000  600.0000    9.4000    5.2912 5613.2010    9.9352 4349.5111 214095.5380   10.0000   16.5000 
8908.5000   33.9008 5020.4587   44.0000  138.6535 2662.5842    0.0000  600.0000    9.3808    4.7928 5672.3871   10.4525 4340.8658 214096.6088   10.0000   15.9000 
8909.0000   33.8979 4999.2301   44.0000  138.6535 2642.8651    0.0000  600.0000    9.3776    4.1193 5650.9935   10.1730 4339.6358 213793.5948    9.0000   15.4000 
8909.5000   34.0000 4977.5461   44.0000  138.6535 2651.3464    0.0000  600.0000    9.3930    4.7547 5625.8965   10.3259 4346.9961 214077.0391    9.0000   14.9000 
8910.0000   34.7924 4963.5855   44.0000  138.6535 2649.8831    0.0000  600.0000    9.4136    4.8979 5643.4216   10.4158 4356.7765 212913.0528    9.0000   14.5000 
8910.5000   34.0408 4960.5647   44.0000  138.6535 2648.1039    0.0000  600.0000    9.3902    4.9005 5582.4010   10.5050 4346.2262 213511.0030    9.0000   14.0000 
8911.0000   34.3942 4959.3493   44.0000  138.6535 2649.6474    0.0000  600.0000    9.3999    4.9664 5596.5164   10.1664 4350.9395 214095.6488    9.0000   13.5000 
8911.5000   33.9097 4961.5420   44.0000  138.6535 2654.1048    0.0000  600.0000    9.3919    5.0686 5651.8192    9.3620 4347.4787 214090.3319    9.0000   13.0000 
8912.0000   34.2054 4956.7647   44.0000  138.6535 2644.1673    0.0000  600.0000    9.3796    4.8831 5652.4917    8.4263 4342.0393 213508.0792    8.0000   12.5000 
8912.5000   34.5945 4951.5102   44.0000  138.6535 2653.7417    0.0000  600.0000    9.3974    5.0153 5638.8647    7.8692 4350.5197 214094.4670    9.0000   12.0000 
8913.0000   34.5924 4946.7569   44.0000  138.6535 2650.2584    0.0000  600.0000    9.3814    5.0585 5657.8365    8.0667 4343.3521 213210.1854    8.0000   11.4000 
8913.5000   34.0041 4940.8288   44.0136  138.6535 2634.5045    0.0000  600.0000    9.3959    5.4142 5618.6524    8.7849 4350.3102 213212.2636    9.0000   10.9000 
8914.0000   33.9165 4936.1810   44.0000  138.6535 2642.2349    0.0000  600.0000    9.3868    4.8871 5595.4499    9.1138 4346.3520 213800.0077    9.0000   10.5000 
8914.5000   33.8992 4932.6141   44.0000  138.6535 2660.3998    0.0000  600.0000    9.3953    4.9595 5639.0938    9.2882 4350.5032 213797.6268    9.0000   10.0000 
8915.0000   34.3002 4937.2524   44.0000  138.6535 2638.8856    0.0000  600.0000    9.4011    4.8585 5557.1276    9.7671 4353.4467 214100.0057   22.0000    9.5000 
8915.5000   34.5899 4936.0311   44.0202  138.6535 2613.1474    0.0000  600.0000    9.3959    5.2226 5640.3103    9.7673 4351.2900 213506.0483  115.0000    8.9000 
8916.0000   33.5379 4929.0626   44.0000  138.6535 2642.7158    0.0000  600.0000    9.3828    5.1104 5613.1296   10.0431 4345.4776 212934.1140   22.0000    8.4000 
8916.5000   34.4545 4923.1892   44.0000  138.6535 2652.5193    0.0000  600.0000    9.4136    4.6342 5645.5128   10.2869 4359.9893 213631.2514   17.0000    7.9000 
8917.0000   33.8996 4923.2621   44.0000  138.6535 2647.9263    0.0000  600.0000    9.3807    5.4369 5656.2785   10.2988 4344.9647 213800.0077   17.0000    7.4004 
8917.5000   34.2985 4919.8903   44.0000  138.6535 2642.4654    0.0000  600.0000    9.3805    4.6123 5641.9405    9.6230 4345.1263 214097.7977   17.0000    7.0000 
8918.0000   33.6014 4903.5216   44.0000  138.6535 2634.7274    0.0000  600.0000    9.3949    5.0769 5604.7455    9.6857 4352.0581 213802.0536   16.0000    6.5000 
8918.5000   34.0012 4897.5566   44.0000  138.6535 2651.5339    0.0000  600.0000    9.3935    4.3074 5667.4611    9.7201 4351.6547 213796.5239   16.0000    6.0000 
8919.0000   34.4950 4903.1017   44.0000  138.6535 2646.8035    0.0000  600.0000    9.4106    4.3568 5588.0445    9.2578 4359.7852 213800.0077   18.0000    5.4000 
8919.5000   33.7008 4896.9301   44.0000  138.6535 2647.6180    0.0000  600.0000    9.4001    5.3762 5603.5658    9.6576 4355.2019 213199.9947   16.0000    4.9000 
8920.0000   33.7103 4895.1149   44.0000  138.6535 2606.1172    0.0000  600.0000    9.3884    4.7492 5654.3386    9.9578 4349.9924 213492.2388   18.0000    4.4000 
8920.5000   33.7983 4896.2808   44.0000  138.6535 2652.7885    0.0000  600.0000    9.3958    4.2868 5652.7412    9.9855 4353.6896 213800.0077   11.0000    3.9017 
8921.0000   34.0016 4895.3957   44.0000  138.6535 2643.8580    0.0000  600.0000    9.3745    4.8446 5669.1581   10.2558 4344.0460 213199.9947    8.0000    3.5000 
8921.5000   34.1998 4901.0495   44.0000  138.6535 2646.3585    0.0000  600.0000    9.3980    4.3926 5615.2617   10.2376 4355.1771 213201.2500    8.0000    3.0000 
8922.0000   34.0041 4902.5517   44.0000  138.6535 2649.4386    0.0000  600.0000    9.4042    4.6373 5634.4763   10.2101 4358.3007 214393.8213    7.0000    2.5000 
8922.5000   34.5001 4900.2761   44.0000  138.6535 2652.1851    0.0000  600.0000    9.3932    4.6218 5617.2841   10.3627 4353.4648 213800.0077    7.0000    1.9000 
8923.0000   33.8068 4899.5584   44.0000  138.6535 2651.5181    0.0000  600.0000    9.4053    4.3261 5620.9411   10.3944 4359.3219 213796.6283    7.0000    1.4000 
8923.5000   34.3965 4896.8615   44.0000  138.6535 2645.2418    0.0000  600.0000    9.3987    4.7724 5642.0554   10.6743 4356.4770 213800.0077    6.0039    0.9004 
8924.0000   33.8959 4869.2262   44.0000  138.6535 2653.6690    0.0000  600.0000    9.3840    4.1906 5644.2226   11.0247 4349.9159 212912.4029    6.0000    0.4986 
8924.5000   34.1937 4853.7968   44.0000  138.6535 2652.9923    0.0000  600.0000    9.4037    4.6050 5605.4145   10.5939 4359.3139 213509.4454    6.0000    0.0000 
