~V
VERS  .       2.0                       : 
WRAP  .       NO                        : 
~W
STRT  .ft     6500.0000                 : 
STOP  .ft     15497.5000                : 
STEP  .ft        0.5000                 : 
NULL  .       -999.0000                 : 
COMP  .       Oxy                       : 
WELL  .       University 20-26 #1H      : 
FLD   .       Bone Spring               : 
LOC   .       Wink                      : 
SRVC  .       Scientific Drilling       : 
DATE  .       01/05/2009                : 
CNTY  .       Winkler County            : 
STAT  .       Texas                     : 
CTRY  .       United States             : 
API   .       42-495-33311              : 
~C
MD    .ft                               : Measured Depth
Weight-on-Bit(surf,avg).kip                              : 
TopDrvTorque.kip-ft                           : 
TopDrvSpeed.rpm                              : 
Temperature.degF                             : 
StandpipePressure.psi                              : 
ROP(MWD).ft/hr                            : 
MudFlowIn.gal/min                           : 
MergedcurvefromECD,ECDofLogAnnulusPress,ECDofLogAnnulusPress(MWD).lb/gal                           : 
LogRMSVibrations.G                                : 
LogPipePress.psi                              : 
LogGammaRay.aapi                             : 
LogAnnulusPress.psi                              : 
HookLoad(MWD).lbf                              : 
Gas(avg).%                                : 
BlockPosition(MWD).ft                               : 
~P
~O
~A
# ...
8300.0000   21.9827    0.0000    0.0000  136.1732 2655.5024   61.5954  600.0000    9.4534    3.1275 5523.0546   49.8299 4075.7526 208144.9605   84.0000   37.3000 
8300.5000   21.9834    0.0000    0.0000  136.1732 2658.6171   61.9114  600.0000    9.4788    3.4504 5506.6345   47.9570 4086.9238 208000.0015   83.0000   36.9000 
8301.0000   21.9568    0.0000    0.0000  136.1732 2632.6872   59.2023  600.0000    9.4488    2.9579 5464.5080   46.0045 4074.2307 208298.7899   82.0000   36.4000 
8301.5000   21.9672    0.0000    0.0000  136.1732 2666.9169   57.1522  600.0000    9.4860    3.3088 5447.5104   44.6179 4090.5228 208592.0487   82.0000   35.9000 
8302.0000   21.9672    0.0000    0.0000  136.1732 2661.3198   58.6060  600.0000    9.4606    3.6299 5381.6492   45.3123 4079.8371 209189.4718   81.0000   35.4018 
8302.5000   21.9674    0.0000    0.0000  136.1732 2676.9065   62.0362  600.0000    9.4737    3.3476 5524.0149   45.4060 4085.7135 207424.0055   80.0000   34.9000 
8303.0000   21.9710    0.0000    0.0000  136.1732 2693.8763   69.3136  600.0000    9.4721    3.0341 5533.4214   46.1627 4085.2566 208300.5163   76.0000   34.4000 
8303.5000   21.9745    0.0000    0.0000  136.1732 2681.7621   74.6144  600.0000    9.4593    2.9467 5529.5231   47.4140 4079.9798 208003.0350   75.0000   33.9000 
8304.0000   21.9717    0.0000    0.0000  136.1732 2680.4813   74.3841  600.0000    9.4843    4.4522 5470.7137   48.3803 4091.0202 207999.1950   75.0000   33.4000 
8304.5000   21.9771    0.0000    0.0000  136.1732 2682.6942   73.0246  600.0000    9.4793    3.2642 5411.7098   51.7509 4089.1305 208299.9994   77.0000   32.9000 
8305.0000   21.9825    0.0000    0.0000  136.1732 2671.8162   67.7377  600.0000    9.4867    4.4738 5497.2622   53.3186 4092.5700 208299.9994   80.5178   32.4000 
8305.5000   21.9829    0.0000    0.0000  136.1732 2605.2011   61.6520  600.0000    9.4586    3.4679 5398.7981   56.1515 4080.6570 208297.9067   86.0000   31.8000 
8306.0000   21.9844    0.0000    0.0000  136.1732 2668.5058   58.0820  600.0000    9.4935    3.0822 5462.5716   60.8698 4095.9770 208597.7126   86.0000   31.4000 
8306.5000   21.9802    0.0000    0.0000  136.1732 2642.1008   57.3505  600.0000    9.4633    4.1155 5410.6893   64.4415 4083.1831 207708.7587   86.0000   30.9000 
8307.0000   21.9862    0.0000    0.0000  136.1732 2675.6952   60.4054  600.0000    9.4700    3.1976 5456.6688   68.9637 4086.3382 207700.0035   86.0000   30.4000 
8307.5000   21.9856    0.0000    0.0000  136.1732 2662.9584   66.9066  600.0000    9.4457    3.9756 5421.2838   71.5457 4076.0920 207702.2189   87.0000   29.9000 
8308.0000   21.9802    0.0000    0.0000  136.1732 2661.8188   71.6360  600.0000    9.4707    3.4684 5512.6575   68.1616 4087.1096 208700.1092   87.0000   29.4000 
8308.5000   21.9798    0.0000    0.0000  136.1732 2658.1717   72.5184  600.0000    9.4621    3.3989 5489.6490   62.2245 4083.6823 208879.5401   86.0000   28.9000 
8309.0000   21.9835    0.0000    0.0000  136.1732 2649.1861   70.9988  600.0000    9.4665    3.2347 5459.0658   59.0554 4085.8263 208906.8881   85.0000   28.4000 
8309.5000   21.9821    0.0000    0.0000  136.1732 2672.9310   64.8366  600.0000    9.4501    3.1060 5397.1716   57.8437 4078.9753 208197.5075   87.0000   27.8683 
8310.0000   21.9791    0.0000    0.0000  136.1732 2575.4602   57.6315  600.0000    9.4600    3.1712 5499.4305   56.3398 4083.4921 208000.0015   88.0000   27.4000 
8310.5000   21.9804    0.0000    0.0000  136.1732 2652.5373   52.4105  600.0000    9.4545    3.0537 5457.4850   60.1603 4081.3753 208498.4716   84.0000   26.9000 
8311.0000   21.9782    0.0000    0.0000  136.1732 2632.5551   47.4674  600.0000    9.4434    4.0133 5487.0860   63.2881 4076.8122 208313.4394   90.0000   26.4000 
8311.5000   21.9779    0.0000    0.0000  136.1732 2620.2436   44.6899  600.0000    9.4606    3.8866 5486.7812   60.3115 4084.4697 208599.9974   95.9953   25.9000 
8312.0000   21.9751    0.0000    0.0000  136.1732 2615.7867   44.2082  600.0000    9.4594    3.6062 5260.2457   56.1261 4084.2285 208297.9643  101.0000   25.4000 
8312.5000   21.9758    0.0000    0.0000  136.1732 2643.4884   43.7531  600.0000    9.4383    3.0968 5330.8296   49.3756 4075.3694 208299.9994  123.0000   24.9000 
8313.0000   21.9749    0.0000    0.0000  136.1732 2655.8908   43.1392  600.0000    9.4349    3.8284 5316.1169   40.8223 4074.1371 208295.5643  131.0000   24.4000 
8313.5000   21.9710    0.0000    0.0000  136.1732 2630.4065   42.8070  600.0000    9.4344    2.9104 5346.2062   35.6701 4074.1371 208296.7871  128.0000   23.9000 
8314.0000   21.9677    0.0000    0.0000  136.1732 2624.2890   42.5885  600.0000    9.4171    3.3779 5347.7428   35.9282 4066.9456 208295.7903  128.9930   23.4000 
8314.5000   21.9607    0.0000    0.0000  136.1732 2625.1298   42.8053  600.0000    9.4383    3.1547 5285.9097   39.4905 4076.3366 208007.4229  113.0000   22.9000 
8315.0000   21.9671    0.0000    0.0000  136.1732 2643.0223   42.9405  600.0000    9.4549    3.2119 5292.8035   42.6011 4083.7432 208301.2474  108.0000   22.3498 
8315.5000   21.8949    0.0000    0.0000  136.1732 2637.2259   42.3073  600.0000    9.4281    3.4425 5292.8035   44.6052 4072.4371 208000.0015  115.0000   21.9000 
8316.0000   21.8969    0.0000    0.0000  136.1732 2587.5472   40.3568  600.0000    9.4383    4.2722 5282.4939   44.8242 4077.0465 207700.1571  112.0000   21.4000 
8316.5000   21.8953    0.0000    0.0000  136.1732 2622.0292   37.9226  600.0000    9.4376    3.1130 5392.0240   40.9366 4077.0076 208000.0015   91.0000   20.9000 
8317.0000   21.8957    0.0000    0.0000  136.1732 2630.1520   36.3807  600.0000    9.4489    3.2224 5436.9845   34.7008 4082.1253 207550.9550   85.0000   20.4000 
8317.5000   21.8949    0.0000    0.0000  136.1732 2626.0631   35.6220  600.0000    9.4185    3.8192 5449.8971   28.0371 4069.2311 207996.4495   84.0000   19.9000 
8318.0000   21.9151    0.0000    0.0000  136.1732 2586.9300   36.2381  600.0000    9.4586    2.6439 5483.7288   23.5198 4086.8375 207400.0056   76.0000   19.4000 
8318.5000   21.9338    0.0000    0.0000  136.1732 2641.3278   38.2818  600.0000    9.4402    3.0550 5582.2368   20.5849 4079.1345 208907.6016   73.0000   18.9000 
8319.0000   21.9825    0.0000    0.0000  136.1732 2614.2719   40.6682  600.0000    9.4540    3.1766 5578.7749   21.8606 4085.3385 207709.1234   74.0000   18.4000 
8319.5000   22.0164    0.0000    0.0000  136.1732 2624.6207   42.1967  600.0000    9.4621    3.2783 5695.3579   26.2987 4089.0738 207696.9892   83.0000   17.9000 
8320.0000   22.0516    0.0000    0.0000  136.1732 2612.7557   42.1290  600.0000    9.4159    3.0413 5359.9364   30.0628 4069.3305 206499.9945   98.5142   17.4000 
8320.5000   22.0951    0.0000    0.0000  136.1732 2593.8012   38.8228  600.0000    9.4473    3.1716 5325.7756   33.9379 4083.1622 207103.9952  105.0000   16.9000 
8321.0000   22.1437    0.0000    0.0000  136.1732 2588.1017   35.6659  600.0000    9.4354    3.2723 5449.7434   37.0064 4078.2689 205824.3739  118.0000   16.3976 
8321.5000   22.1791    0.0000    0.0000  136.1732 2627.4565   36.3414  600.0000    9.4417    3.4097 5503.8900   37.0326 4081.2303 204610.4452  108.0000   15.9000 
8322.0000   22.2838    0.0000    0.0000  136.1732 2622.7802   38.1290  600.0000    9.4288    3.4645 5511.9283   36.4783 4075.9208 204586.6714  107.0000   15.4000 
8322.5000   22.3352    0.0000    0.0000  136.1732 2645.6356   42.0986  600.0000    9.4423    3.1180 5432.2125   37.7971 4081.9688 204300.1981  109.0000   14.9000 
8323.0000   22.3736    0.0000    0.0000  136.1732 2640.4214   43.7071  600.0000    9.4507    3.3267 5428.9536   40.4616 4085.8647 204293.7197  111.0000   14.4000 
8323.5000   22.4091    0.0000    0.0000  136.1732 2608.3993   41.9190  600.0000    9.4474    3.1305 5448.5470   44.2081 4084.6964 204332.4532   98.0000   13.9000 
8324.0000   22.4422    0.0000    0.0000  136.1732 2620.2753   39.2481  600.0000    9.4531    3.3319 5401.6060   47.6742 4087.3827 204452.3874   91.0000   13.4000 
8324.5000   22.4300    0.0000    0.0000  136.1732 2591.8620   36.3244  600.0000    9.4655    3.2775 5438.5478   49.0237 4092.9928 204297.4637  101.0000   13.0000 
